{"id":0,"category":["rain"],"contentChildrenCount":{"review":0,"lead":0},"contact":{"phone":"02 6248 6887","website":"https://university-pharmacy-drugstore.business.site/"},"content":{"id":20221,"slug":"university-pharmacy"},"location":{"street":"B2 UNIV.PHARM.HEALTH&WELLBEING","city":"Sydney","state":"Australian Capital Territory","country":"AU","address":"B2 UNIV.PHARM.HEALTH&WELLBEING AUSTRALIAN NATIONAL U  NSW 200","latitude":-35.27758,"longitude":149.120171,"zip":2601},"status":"trashed","title":"UNIVERSITY PHARMACY"}
{"id":1,"category":["beach","rain"],"contentChildrenCount":{"review":0,"lead":0},"contact":{"phone":"08 8981 2139","website":"https://alfreds-establishment-poi.business.site/"},"content":{"id":20222,"slug":"alfreds-pty-ltd"},"location":{"street":"SHOP 3/20 KNUCKEY STREET","city":"Darwin City","state":"Northern Territory","country":"AU","address":"SHOP 3/20 KNUCKEY STREET DARWIN NT 800","latitude":-12.462468,"longitude":130.842496,"zip":800},"status":"trashed","title":"ALFREDS PTY LTD"}
{"id":2,"category":["rain"],"contentChildrenCount":{"review":0,"lead":0},"contact":{"phone":"08 8984 4255","website":"https://www.blackwoods.com.au/"},"content":{"id":20223,"slug":"j-blackwood-son-ltd"},"location":{"street":"8 MATARAM STREET","city":"Winnellie","state":"Northern Territory","country":"AU","address":"8 MATARAM STREET WINNELLIE QLD 820","latitude":-12.427656,"longitude":130.89097,"zip":820},"status":"trashed","title":"J.BLACKWOOD & SON LTD"}
{"id":3,"category":["rain"],"contentChildrenCount":{"review":0,"lead":0},"contact":{"phone":"08 8942 3334"},"content":{"id":20224,"slug":"the-store-at-the-museum-nt"},"location":{"street":"19 CONACHER STREET","city":"The Gardens","state":"Northern Territory","country":"AU","address":"19 CONACHER STREET PARAP QLD 804","latitude":-12.436733,"longitude":130.835109,"zip":820},"status":"trashed","title":"THE STORE AT THE MUSEUM NT"}
{"id":4,"category":["beach","rain"],"contentChildrenCount":{"review":0,"lead":0},"contact":{"phone":"08 8952 1788","website":"https://www.blackwoods.com.au/"},"content":{"id":20225,"slug":"j-blackwood-son-ltd-alice-sp"},"location":{"street":"4219 STUART HIGHWAY","city":"Acacia Hills","state":"Northern Territory","country":"AU","address":"4219 STUART HIGHWAY ALICE SPRINGS QLD 870","latitude":-12.820626,"longitude":131.129974,"zip":822},"status":"trashed","title":"J.BLACKWOOD & SON LTD ALICE SP"}
{"id":5,"category":["furniture","shade"],"contentChildrenCount":{"review":0,"lead":0},"contact":{"phone":"08 8985 4544","website":"https://www.barbequesgalore.com.au/"},"content":{"id":20226,"slug":"barbeques-galore-darwin"},"location":{"street":"SHOP 2/660 STUART HIGHWAY","city":"Berrimah","state":"Northern Territory","country":"AU","address":"SHOP 2/660 STUART HIGHWAY BERRIMAH QLD 828","latitude":-12.433325,"longitude":130.919816,"zip":828},"status":"trashed","title":"BARBEQUES GALORE  DARWIN"}
{"id":6,"category":["furniture","shade"],"contentChildrenCount":{"review":0,"lead":0},"contact":{"phone":"08 8922 4111","website":"https://www.harveynorman.com.au/"},"content":{"id":20227,"slug":"harvey-norman-darwin"},"location":{"street":"644 STUART HIGHWAY","city":"Berrimah","state":"Northern Territory","country":"AU","address":"644 STUART HIGHWAY DARWIN QLD 800","latitude":-12.432259,"longitude":130.918603,"zip":828},"status":"trashed","title":"HARVEY NORMAN DARWIN"}
{"id":7,"category":["beach","rain"],"contentChildrenCount":{"review":0,"lead":0},"contact":{"phone":"08 8931 0678","website":"https://www.choicepharmacy.com.au/"},"content":{"id":20228,"slug":"choice-pharmacy-bakewell"},"location":{"street":"SHOP 8, 1 Mankkikan Court","city":"Bakewell","state":"Northern Territory","country":"AU","address":"SHOP 8, 1 Mankkikan Court BAKEWELL QLD 832","latitude":-12.494666,"longitude":130.993434,"zip":832},"status":"trashed","title":"CHOICE PHARMACY BAKEWELL"}
{"id":8,"category":["furniture","shade"],"contentChildrenCount":{"review":0,"lead":0},"contact":{"phone":"08 8950 4000","website":"https://www.harveynorman.com.au/"},"content":{"id":20229,"slug":"harvey-norman-alice-springs"},"location":{"street":"1 COLSON STREET","city":"Alice Springs","state":"Northern Territory","country":"AU","address":"1 COLSON STREET ALICE SPRINGS QLD 870","latitude":-23.695697,"longitude":133.877433,"zip":870},"status":"trashed","title":"HARVEY NORMAN ALICE SPRINGS"}
{"id":9,"category":["rain"],"contentChildrenCount":{"review":0,"lead":0},"contact":{"phone":"02 9299 2678","website":"https://www.barangaroo-pharmacy.com.au/"},"content":{"id":20230,"slug":"barangaroo-pharmacy"},"location":{"street":"TOWER 3, SHOP 3A","city":"Barangaroo","state":"New South Wales","country":"AU","address":"TOWER 3, SHOP 3A BARANGAROO  NSW 2000","latitude":-33.863982,"longitude":151.201332,"zip":2000},"status":"trashed","title":"BARANGAROO PHARMACY"}
{"id":10,"category":["beach","rain"],"contentChildrenCount":{"review":0,"lead":0},"contact":{"phone":"02 9231 2165","website":"https://www.healthdirect.gov.au/"},"content":{"id":20231,"slug":"bland-centre-pharmacy"},"location":{"street":"229-231 MACQUARIE ST","city":"Sydney","state":"New South Wales","country":"AU","address":"229-231 MACQUARIE ST SYDNEY  NSW 2000","latitude":-33.868518,"longitude":151.211826,"zip":2000},"status":"trashed","title":"BLAND CENTRE PHARMACY"}
{"id":11,"category":["shade"],"contentChildrenCount":{"review":0,"lead":0},"contact":{"phone":"02 8063 4140","website":"https://www.cancercouncil.com.au/"},"content":{"id":20232,"slug":"cancer-council-australia-pitt"},"location":{"street":"LEVEL 14, 477 PITT STREET","city":"Sydney","state":"New South Wales","country":"AU","address":"LEVEL 14, 477 PITT STREET KINGS CROSS  NSW 2011","latitude":-33.88056,"longitude":151.206137,"zip":2000},"status":"trashed","title":"CANCER COUNCIL AUSTRALIA PITT"}
{"id":12,"category":["beach","rain"],"contentChildrenCount":{"review":0,"lead":0},"contact":{"phone":"02 8297 1814","website":"https://www.officenational.com.au/"},"content":{"id":20233,"slug":"city-stationery-office-choice"},"location":{"street":"82 PITT STREET","city":"Sydney","state":"New South Wales","country":"AU","address":"82 PITT STREET SYDNEY  NSW 2000","latitude":-33.866705,"longitude":151.208927,"zip":2000},"status":"trashed","title":"CITY STATIONERY OFFICE CHOICE"}
{"id":13,"category":["furniture","shade"],"contentChildrenCount":{"review":0,"lead":0},"contact":{"phone":"02 9211 2489","website":"https://darlingsqpharmacy.com.au/"},"content":{"id":20234,"slug":"darling-square-pharmacy"},"location":{"street":"8 STEAM MILL LANE","city":"Haymarket","state":"New South Wales","country":"AU","address":"8 STEAM MILL LANE HAYMARKET  NSW 2000","latitude":-33.878146,"longitude":151.201395,"zip":2000},"status":"trashed","title":"DARLING SQUARE PHARMACY"}
{"id":14,"category":["rain"],"contentChildrenCount":{"review":0,"lead":0},"contact":{"phone":"02 9266 5544","website":"https://www.davidjones.com/"},"content":{"id":20235,"slug":"david-jones-elizabeth-st"},"location":{"street":"133 ELIZABETH ST","city":"Sydney","state":"New South Wales","country":"AU","address":"133 ELIZABETH ST SYDNEY  NSW 2000","latitude":-33.870311,"longitude":151.210089,"zip":2000},"status":"trashed","title":"DAVID JONES ELIZABETH ST"}
{"id":15,"category":["rain"],"contentChildrenCount":{"review":0,"lead":0},"contact":{"phone":"02 9266 5544","website":"https://www.davidjones.com/"},"content":{"id":20236,"slug":"david-jones-market-st"},"location":{"street":"MARKET ST","city":"Sydney","state":"New South Wales","country":"AU","address":"MARKET ST SYDNEY  NSW 2000","latitude":-33.870755,"longitude":151.207039,"zip":2000},"status":"trashed","title":"DAVID JONES MARKET ST"}
{"id":16,"category":["beach","rain"],"contentChildrenCount":{"review":0,"lead":0},"contact":{"phone":"02 9235 0155","website":"https://www.dymocks.com.au/"},"content":{"id":20237,"slug":"dymocks-sydney"},"location":{"street":"424-430 GEORGE STREET","city":"Sydney","state":"New South Wales","country":"AU","address":"424-430 GEORGE STREET SYDNEY  NSW 2000","latitude":-33.869959,"longitude":151.207383,"zip":2000},"status":"trashed","title":"DYMOCKS SYDNEY"}
{"id":17,"category":["beach"],"contentChildrenCount":{"review":0,"lead":0},"contact":{"phone":"02 9267 0233","website":"https://www.gloverchemist.com.au/"},"content":{"id":20238,"slug":"glover-chemist"},"location":{"street":"RG31 THE GALERIES","city":"Sydney","state":"New South Wales","country":"AU","address":"RG31 THE GALERIES SYDNEY  NSW 2000","latitude":-33.872552,"longitude":151.207617,"zip":2000},"status":"trashed","title":"GLOVER CHEMIST"}
{"id":18,"category":["beach","rain"],"contentChildrenCount":{"review":0,"lead":0},"contact":{"phone":"02 9247 5566","website":"https://pharmacyhealth.com.au/"},"content":{"id":20239,"slug":"healthline-pharmacy-wynyard"},"location":{"street":"261 GEORGE STREET","city":"Sydney","state":"New South Wales","country":"AU","address":"261 GEORGE STREET SYDNEY  NSW 2000","latitude":-33.864469,"longitude":151.207163,"zip":2000},"status":"trashed","title":"HEALTHLINE PHARMACY WYNYARD"}
{"id":19,"category":["rain"],"contentChildrenCount":{"review":0,"lead":0},"contact":{"phone":"02 9267 1222","website":"https://www.lowes.com.au/"},"content":{"id":20240,"slug":"lowes-corner"},"location":{"street":"295-301 CNR PITT & PARK STS","city":"Sydney","state":"New South Wales","country":"AU","address":"295-301 CNR PITT & PARK STS SYDNEY  NSW 1044","latitude":-33.870537,"longitude":151.20825,"zip":2000},"status":"trashed","title":"LOWES - CORNER"}
{"id":20,"category":["rain"],"contentChildrenCount":{"review":0,"lead":0},"contact":{"phone":"02 9286 3375","website":"https://www.lowes.com.au/"},"content":{"id":20241,"slug":"lowes-george-ladies"},"location":{"street":"458A GEORGE STREET","city":"Sydney","state":"New South Wales","country":"AU","address":"458A GEORGE STREET SYDNEY  NSW 1044","latitude":-33.882221,"longitude":151.204759,"zip":2000},"status":"trashed","title":"LOWES GEORGE LADIES"}
{"id":21,"category":["rain"],"contentChildrenCount":{"review":0,"lead":0},"contact":{"phone":"02 9261 3333","website":"https://www.healthdirect.gov.au/"},"content":{"id":20242,"slug":"max-chemist-c-o-d"},"location":{"street":"SHOP 1, 280 PITT STREET","city":"Sydney","state":"New South Wales","country":"AU","address":"SHOP 1, 280 PITT STREET SYDNEY  NSW 2000","latitude":-33.874304,"longitude":151.208195,"zip":2000},"status":"trashed","title":"MAX CHEMIST    C.O.D."}
{"id":22,"category":["rain"],"contentChildrenCount":{"review":0,"lead":0},"contact":{"phone":"02 9247 2045","website":"https://www.amcal.com.au/"},"content":{"id":20243,"slug":"metcentre-pharmacy"},"location":{"street":"SHOP 628,273 GEORGE STREET","city":"Sydney","state":"New South Wales","country":"AU","address":"SHOP 628,273 GEORGE STREET SYDNEY  NSW 2000","latitude":-33.871722,"longitude":151.206708,"zip":2000},"status":"trashed","title":"METCENTRE PHARMACY"}
{"id":23,"category":["shade"],"contentChildrenCount":{"review":0,"lead":0},"contact":{"phone":"02 9233 4949"},"content":{"id":20244,"slug":"moses-shoe-repairs"},"location":{"street":"MARTIN PLACE RAILWAY STAT.","city":"Sydney","state":"New South Wales","country":"AU","address":"MARTIN PLACE RAILWAY STAT. SYDNEY  NSW 1001","latitude":-33.867964,"longitude":151.211702,"zip":2000},"status":"trashed","title":"MOSES SHOE REPAIRS"}
{"id":24,"category":["rain"],"contentChildrenCount":{"review":0,"lead":0},"contact":{"phone":"02 9238 9111","website":"https://www.myer.com.au/"},"content":{"id":20245,"slug":"myer-george-st"},"location":{"street":"436 GEORGE ST","city":"Sydney","state":"New South Wales","country":"AU","address":"436 GEORGE ST SYDNEY  NSW 2000","latitude":-33.870617,"longitude":151.208846,"zip":2000},"status":"trashed","title":"MYER GEORGE ST"}
{"id":25,"contentChildrenCount":{"review":0,"lead":0},"contact":{"phone":"02 8281 1100","website":"https://www.besydney.com.au/"},"content":{"id":20246,"slug":"nicks-seafood-restaurant"},"location":{"street":"SUITE 125, 158-166 DAY STREET","city":"Sydney","state":"New South Wales","country":"AU","address":"SUITE 125, 158-166 DAY STREET SYDNEY  NSW 1001","latitude":-33.874325,"longitude":151.203568,"zip":2000},"status":"trashed","title":"NICK'S SEAFOOD RESTAURANT"}
{"id":26,"category":["rain"],"contentChildrenCount":{"review":0,"lead":0},"contact":{"phone":"02 9264 7779","website":"https://www.healthdirect.gov.au/"},"content":{"id":20247,"slug":"pavilion-pharmacy"},"location":{"street":"SHOP LG22, 580 GEORGE STREET","city":"Sydney","state":"New South Wales","country":"AU","address":"SHOP LG22, 580 GEORGE STREET SYDNEY  NSW 2000","latitude":-33.874661,"longitude":151.207001,"zip":2000},"status":"trashed","title":"PAVILION PHARMACY"}
{"id":27,"category":["rain"],"contentChildrenCount":{"review":0,"lead":0},"contact":{"phone":"02 8079 2200","website":"https://www.priceline.com.au/"},"content":{"id":20248,"slug":"price-line-pharmacy-george"},"location":{"street":"SHOP 3A & 3B","city":"Haymarket","state":"New South Wales","country":"AU","address":"SHOP 3A & 3B SYDNEY  NSW 2000","latitude":-33.8701,"longitude":151.208897,"zip":2000},"status":"trashed","title":"PRICE LINE PHARMACY GEORGE"}
{"id":28,"category":["rain"],"contentChildrenCount":{"review":0,"lead":0},"contact":{"phone":"02 9290 3355","website":"https://www.priceline.com.au/"},"content":{"id":20249,"slug":"price-line-pharmacy-margaret"},"location":{"street":"SHOP 1, 1 MARGARET STREET","city":"Sydney","state":"New South Wales","country":"AU","address":"SHOP 1, 1 MARGARET STREET SYDNEY  NSW 1044","latitude":-33.865449,"longitude":151.20446,"zip":2000},"status":"trashed","title":"PRICE LINE PHARMACY  MARGARET"}
{"id":29,"category":["rain"],"contentChildrenCount":{"review":0,"lead":0},"contact":{"phone":"02 9221 7098","website":"https://www.priceline.com.au/"},"content":{"id":20250,"slug":"price-line-pharmacy-pitt-st"},"location":{"street":"88 PITT STREET","city":"Sydney","state":"New South Wales","country":"AU","address":"88 PITT STREET SYDNEY  NSW 2000","latitude":-33.866985,"longitude":151.208808,"zip":2000},"status":"trashed","title":"PRICE LINE PHARMACY  PITT ST"}
{"id":30,"category":["beach","rain"],"contentChildrenCount":{"review":0,"lead":0},"contact":{"phone":"02 9223 9670","website":"https://chifleyshoeworx.business.site/"},"content":{"id":20251,"slug":"shoeworx-keys-engraving"},"location":{"street":"SHOP 252 LEVEL 1, 2 CHIFLEY TOWER","city":"Sydney","state":"New South Wales","country":"AU","address":"SHOP 252 LEVEL 1, 2 CHIFLEY TOWER SYDNEY  NSW 2000","latitude":-33.865859,"longitude":151.211671,"zip":2000},"status":"trashed","title":"SHOEWORX, KEYS & ENGRAVING"}
{"id":31,"category":["furniture","shade"],"contentChildrenCount":{"review":0,"lead":0},"contact":{"phone":"02 9261 2448","website":"https://www.sydneycitypharmacy.net.au/"},"content":{"id":20252,"slug":"sydney-city-pharmacy"},"location":{"street":"SHOP 87 QVB  WALK","city":"Sydney","state":"New South Wales","country":"AU","address":"SHOP 87 QVB  WALK SYDNEY  NSW 2000","latitude":-33.871722,"longitude":151.206708,"zip":2000},"status":"trashed","title":"SYDNEY CITY PHARMACY"}
{"id":32,"category":["rain"],"contentChildrenCount":{"review":0,"lead":0},"contact":{"phone":"02 9264 8928","website":"https://www.healthdirect.gov.au/"},"content":{"id":20253,"slug":"townhall-pharmacy"},"location":{"street":"SHOP 4 TOWN HALL SQUARE","city":"Sydney","state":"New South Wales","country":"AU","address":"SHOP 4 TOWN HALL SQUARE SYDNEY  NSW 2000","latitude":-33.873792,"longitude":151.205506,"zip":2000},"status":"trashed","title":"TOWNHALL PHARMACY"}
{"id":33,"category":["furniture","shade"],"contentChildrenCount":{"review":0,"lead":0},"contact":{"phone":"02 9251 7886"},"content":{"id":20254,"slug":"wintergarden-shoe-repairs"},"location":{"street":"SHOP S5, 1 O'Connell street","city":"Sydney","state":"New South Wales","country":"AU","address":"SHOP S5, 1 O'Connell street SYDNEY  NSW 2000","latitude":-33.864384,"longitude":151.209955,"zip":2000},"status":"trashed","title":"WINTERGARDEN SHOE REPAIRS"}
{"id":34,"category":["beach","rain"],"contentChildrenCount":{"review":0,"lead":0},"contact":{"phone":"02 9281 7350"},"content":{"id":20255,"slug":"broadway-newsagency"},"location":{"street":"SHOP G26, 1 BAY STREET","city":"Ultimo","state":"New South Wales","country":"AU","address":"SHOP G26, 1 BAY STREET BROADWAY  NSW 2007","latitude":-33.882942,"longitude":151.194119,"zip":2007},"status":"trashed","title":"BROADWAY NEWSAGENCY"}
{"id":35,"contentChildrenCount":{"review":0,"lead":0},"contact":{"phone":"02 9356 1001","website":"https://www.toga.com.au/"},"content":{"id":20256,"slug":"toga-constructions-nsw-p-ltd"},"location":{"street":"LEVEL 5, 45 JONES STREET","city":"Ultimo","state":"New South Wales","country":"AU","address":"LEVEL 5, 45 JONES STREET STRAWBERRY HILLS  NSW 1420","latitude":-33.877117,"longitude":151.195219,"zip":2007},"status":"trashed","title":"TOGA CONSTRUCTIONS NSW P/LTD"}
{"id":36,"category":["furniture","shade"],"contentChildrenCount":{"review":0,"lead":0},"contact":{"phone":"02 9053 2255","website":"https://www.luxehome.shop/shop/"},"content":{"id":20257,"slug":"luxehome-shop-pty-ltd"},"location":{"street":"2/397 RILEY STREET","city":"Surry Hills","state":"New South Wales","country":"AU","address":"2/397 RILEY STREET SURRY HILLS  NSW 2010","latitude":-33.885414,"longitude":151.212362,"zip":2010},"status":"trashed","title":"LUXEHOME SHOP PTY LTD"}
{"id":37,"category":["rain"],"contentChildrenCount":{"review":0,"lead":0},"contact":{"phone":"02 9358 6463","website":"https://www.priceline.com.au/"},"content":{"id":20258,"slug":"priceline-pharmacy-potts-point"},"location":{"street":"2/50 MACLEAY STREET","city":"Elizabeth Bay","state":"New South Wales","country":"AU","address":"2/50 MACLEAY STREET POTTS POINT  NSW 1335","latitude":-33.872188,"longitude":151.225318,"zip":2011},"status":"trashed","title":"PRICELINE PHARMACY POTTS POINT"}
{"id":38,"category":["furniture","shade"],"contentChildrenCount":{"review":0,"lead":0},"contact":{"phone":"02 8339 7000","website":"https://www.domayne.com.au/"},"content":{"id":20259,"slug":"domayne-alexandria"},"location":{"street":"84 O'RIORDAN STREET","city":"Alexandria","state":"New South Wales","country":"AU","address":"84 O'RIORDAN STREET ALEXANDRIA  NSW 2015","latitude":-33.917899,"longitude":151.194399,"zip":2015},"status":"trashed","title":"DOMAYNE ALEXANDRIA"}
{"id":39,"category":["furniture","shade"],"contentChildrenCount":{"review":0,"lead":0},"contact":{"phone":"02 9693 0666","website":"https://www.harveynorman.com.au/"},"content":{"id":20260,"slug":"harvey-norman-mascot"},"location":{"street":"504 GARDENERS ROAD","city":"Alexandria","state":"New South Wales","country":"AU","address":"504 GARDENERS ROAD MASCOT  NSW 1460","latitude":-33.91993,"longitude":151.191417,"zip":2015},"status":"trashed","title":"HARVEY NORMAN MASCOT"}
{"id":40,"contentChildrenCount":{"review":0,"lead":0},"contact":{"phone":"02 9662 9800","website":"https://www.harveynorman.com.au/"},"content":{"id":20261,"slug":"harvey-norman-moore-park"},"location":{"street":"CNR STH DOWLING ST & DACEY AVE","city":"Waterloo","state":"New South Wales","country":"AU","address":"CNR STH DOWLING ST & DACEY AVE MOORE PARK  NSW 2021","latitude":-33.900833,"longitude":151.214973,"zip":2017},"status":"trashed","title":"HARVEY NORMAN MOORE PARK"}
{"id":41,"category":["furniture","shade"],"contentChildrenCount":{"review":0,"lead":0},"contact":{"phone":"02 9699 9559","website":"https://www.iga.com.au/"},"content":{"id":20262,"slug":"iga-waterloo"},"location":{"street":"13-21 BOTANY ROAD","city":"Waterloo","state":"New South Wales","country":"AU","address":"13-21 BOTANY ROAD WATERLOO  NSW 2017","latitude":-33.895684,"longitude":151.199366,"zip":2017},"status":"trashed","title":"IGA WATERLOO"}
{"id":42,"category":["rain"],"contentChildrenCount":{"review":0,"lead":0},"contact":{"phone":"02 8394 9351","website":"https://www.iga.com.au/"},"content":{"id":20263,"slug":"iga-rosebery"},"location":{"street":"741 BOTANY ROAD","city":"Rosebery","state":"New South Wales","country":"AU","address":"741 BOTANY ROAD ROSEBERY  NSW 2018","latitude":-33.914325,"longitude":151.201612,"zip":2018},"status":"trashed","title":"IGA ROSEBERY"}
{"id":43,"category":["beach","rain"],"contentChildrenCount":{"review":0,"lead":0},"contact":{"phone":"02 9667 4183","website":"https://www.cincottachemist.com.au/"},"content":{"id":20264,"slug":"cincotta-pharmacy-mascot"},"location":{"street":"944 BOTANY ROAD","city":"Mascot","state":"New South Wales","country":"AU","address":"944 BOTANY ROAD MASCOT  NSW 2020","latitude":-33.930343,"longitude":151.194172,"zip":2020},"status":"trashed","title":"CINCOTTA PHARMACY MASCOT"}
{"id":44,"category":["rain"],"contentChildrenCount":{"review":0,"lead":0},"contact":{"phone":"02 9693 1830","website":"https://www.priceline.com.au/"},"content":{"id":20265,"slug":"priceline-pharmacy-mascot"},"location":{"street":"SHOP 7, 33 KENT ROAD","city":"Mascot","state":"New South Wales","country":"AU","address":"SHOP 7, 33 KENT ROAD MASCOT  NSW 1460","latitude":-33.923256,"longitude":151.18606,"zip":2020},"status":"trashed","title":"PRICELINE PHARMACY MASCOT"}
{"id":45,"contentChildrenCount":{"review":0,"lead":0},"contact":{"phone":"02 9316 7444","website":"https://www.tkmaxx.com.au/"},"content":{"id":20266,"slug":"t-k-maxx"},"location":{"street":"LEVEL 3, 189 O'Riodan Street","city":"Mascot","state":"New South Wales","country":"AU","address":"LEVEL 3, 189 O'Riodan Street MASCOT  NSW 2020","latitude":-33.927274,"longitude":151.18737,"zip":2020},"status":"trashed","title":"T.K.MAXX"}
{"id":46,"category":["shade"],"contentChildrenCount":{"review":0,"lead":0},"contact":{"phone":"02 9357 3111","website":"https://www.mitre10.com.au/"},"content":{"id":20267,"slug":"sunlite-m-10-paddington"},"location":{"street":"347 OXFORD STREET","city":"Paddington","state":"New South Wales","country":"AU","address":"347 OXFORD STREET PADDINGTON  NSW 2021","latitude":-33.886218,"longitude":151.228717,"zip":2021},"status":"trashed","title":"SUNLITE M/10 PADDINGTON"}
{"id":47,"category":["beach","rain"],"contentChildrenCount":{"review":0,"lead":0},"contact":{"phone":"02 9308 0200","website":"https://www.cancercouncil.com.au/"},"content":{"id":20268,"slug":"cancer-council-bondi-junction"},"location":{"street":"SHOP 5042 WESTFIELD, 500 OXFORD STREET","city":"Bondi Junction","state":"New South Wales","country":"AU","address":"SHOP 5042 WESTFIELD, 500 OXFORD STREET BONDI JUNCTION  NSW 2022","latitude":-33.89157,"longitude":151.250501,"zip":2022},"status":"trashed","title":"CANCER COUNCIL BONDI JUNCTION"}
{"id":48,"category":["rain"],"contentChildrenCount":{"review":0,"lead":0},"contact":{"phone":"02 9619 1111","website":"https://www.davidjones.com/"},"content":{"id":20269,"slug":"david-jones-bondi"},"location":{"street":"500 OXFORD ST","city":"Bondi Junction","state":"New South Wales","country":"AU","address":"500 OXFORD ST BONDI  NSW 2026","latitude":-33.891582,"longitude":151.251572,"zip":2022},"status":"trashed","title":"DAVID JONES BONDI"}
{"id":49,"category":["rain"],"contentChildrenCount":{"review":0,"lead":0},"contact":{"phone":"02 9387 1546","website":"https://www.lowes.com.au/"},"content":{"id":20270,"slug":"lowes-bondi-junction"},"location":{"street":"SHOP 62 EASTGATE SHOP CTR","city":"Bondi Junction","state":"New South Wales","country":"AU","address":"SHOP 62 EASTGATE SHOP CTR BONDI JUNCTION  NSW 2022","latitude":-33.892959,"longitude":151.247965,"zip":2022},"status":"trashed","title":"LOWES BONDI JUNCTION"}
{"id":50,"category":["rain"],"contentChildrenCount":{"review":0,"lead":0},"contact":{"phone":"02 9387 0222","website":"https://www.myer.com.au/"},"content":{"id":20271,"slug":"myer-bondi"},"location":{"street":"OXFORD ST","city":"Bondi Junction","state":"New South Wales","country":"AU","address":"OXFORD ST BONDI JUNCTION  NSW 2022","latitude":-33.891658,"longitude":151.246944,"zip":2022},"status":"trashed","title":"MYER BONDI"}
{"id":51,"category":["shade"],"contentChildrenCount":{"review":0,"lead":0},"contact":{"phone":"02 9388 9944","website":"https://www.mitre10.com.au/"},"content":{"id":20272,"slug":"sunlite-m-10-bondi"},"location":{"street":"452 OXFORD STREET","city":"Bondi Junction","state":"New South Wales","country":"AU","address":"452 OXFORD STREET BONDI JUNCTION  NSW 1355","latitude":-33.891756,"longitude":151.249112,"zip":2022},"status":"trashed","title":"SUNLITE M/10 BONDI"}
{"id":52,"category":["rain"],"contentChildrenCount":{"review":0,"lead":0},"contact":{"phone":"02 9363 1597","website":"https://www.queenstreetpharmacy.com.au/"},"content":{"id":20273,"slug":"queen-st-pharmacy"},"location":{"street":"138 QUEEN STREET","city":"Woollahra","state":"New South Wales","country":"AU","address":"138 QUEEN STREET WOOLLAHRA  NSW 2025","latitude":-33.888062,"longitude":151.238148,"zip":2025},"status":"trashed","title":"QUEEN ST PHARMACY"}
{"id":53,"category":["beach","rain"],"contentChildrenCount":{"review":0,"lead":0},"contact":{"phone":"02 9130 4680","website":"https://www.bondipharmacy.com/"},"content":{"id":20274,"slug":"bondi-pharmacy"},"location":{"street":"81 HALL STREET","city":"Bondi Beach","state":"New South Wales","country":"AU","address":"81 HALL STREET BONDI  NSW 2026","latitude":-33.889399,"longitude":151.27161,"zip":2026},"status":"trashed","title":"BONDI PHARMACY"}
{"id":54,"category":["beach"],"contentChildrenCount":{"review":0,"lead":0},"contact":{"phone":"02 9130 1557","website":"https://www.ropersseasidepharmacy.com.au/"},"content":{"id":20275,"slug":"ropers-seaside-pharmacy"},"location":{"street":"31 CAMPBELL PDE","city":"Bondi Beach","state":"New South Wales","country":"AU","address":"31 CAMPBELL PDE BONDI BEACH  NSW 2026","latitude":-33.894059,"longitude":151.273116,"zip":2026},"status":"trashed","title":"ROPERS SEASIDE PHARMACY"}
{"id":55,"category":["beach"],"contentChildrenCount":{"review":0,"lead":0},"contact":{"phone":"0417 233 225"},"content":{"id":20276,"slug":"souvenir-plus"},"location":{"street":"132 CAMPBELL PDE","city":"Bondi Beach","state":"New South Wales","country":"AU","address":"132 CAMPBELL PDE BONDI BEACH  NSW 2026","latitude":-33.890936,"longitude":151.273965,"zip":2026},"status":"trashed","title":"SOUVENIR PLUS"}
{"id":56,"category":["beach","rain"],"contentChildrenCount":{"review":0,"lead":0},"contact":{"phone":"02 9130 3498"},"content":{"id":20277,"slug":"surf-souvenirs"},"location":{"street":"6/88 CAMPBELL PADE","city":"Bondi Beach","state":"New South Wales","country":"AU","address":"6/88 CAMPBELL PADE BONDI BEACH  NSW 2026","latitude":-33.891765,"longitude":151.273193,"zip":2026},"status":"trashed","title":"SURF & SOUVENIRS"}
{"id":57,"category":["beach","rain"],"contentChildrenCount":{"review":0,"lead":0},"contact":{"phone":"02 9328 1316","website":"https://www.bloomsthechemist.com.au/"},"content":{"id":20278,"slug":"blooms-the-chemist-edgecliff"},"location":{"street":"SHOP 10 EASTPOINT FOOD FAIR","city":"Edgecliff","state":"New South Wales","country":"AU","address":"SHOP 10 EASTPOINT FOOD FAIR EDGECLIFF  NSW 2027","latitude":-33.879358,"longitude":151.236526,"zip":2027},"status":"trashed","title":"BLOOMS THE CHEMIST EDGECLIFF"}
{"id":58,"category":["beach","rain"],"contentChildrenCount":{"review":0,"lead":0},"contact":{"phone":"02 9327 5871","website":"https://www.a10x.com/"},"content":{"id":20279,"slug":"abundance-pharmacy"},"location":{"street":"SHOP 25 COSMOPOLITAN CENTRE","city":"Double Bay","state":"New South Wales","country":"AU","address":"SHOP 25 COSMOPOLITAN CENTRE DOUBLE BAY  NSW 2028","latitude":-33.877016,"longitude":151.241994,"zip":2028},"status":"trashed","title":"ABUNDANCE PHARMACY"}
{"id":59,"category":["beach","rain"],"contentChildrenCount":{"review":0,"lead":0},"contact":{"phone":"02 9188 6325"},"content":{"id":20280,"slug":"bay-home-hardware"},"location":{"street":"513 OLD SOUTH ROAD","city":"Rose Bay","state":"New South Wales","country":"AU","address":"513 OLD SOUTH ROAD ROSE BAY  NSW 2029","latitude":-33.874446,"longitude":151.273207,"zip":2029},"status":"trashed","title":"BAY HOME HARDWARE"}
{"id":60,"category":["beach"],"contentChildrenCount":{"review":0,"lead":0},"contact":{"phone":"02 9371 2221"},"content":{"id":20281,"slug":"rose-bay-shoe-repairs"},"location":{"street":"696 NEW SOUTH HEAD ROAD","city":"Rose Bay","state":"New South Wales","country":"AU","address":"696 NEW SOUTH HEAD ROAD ROSE BAY  NSW 2029","latitude":-33.869812,"longitude":151.269071,"zip":2029},"status":"trashed","title":"ROSE BAY SHOE REPAIRS"}
{"id":61,"category":["furniture","shade"],"contentChildrenCount":{"review":0,"lead":0},"contact":{"phone":"02 9388 7886","website":"https://www.healthdirect.gov.au/"},"content":{"id":20282,"slug":"watsons-bay-pharmacy"},"location":{"street":"SHOP 1/23 MILTARY ROAD","city":"Watsons Bay","state":"New South Wales","country":"AU","address":"SHOP 1/23 MILTARY ROAD WATSONS BAY  NSW 2030","latitude":-33.844047,"longitude":151.28428,"zip":2030},"status":"trashed","title":"WATSONS BAY PHARMACY"}
{"id":62,"contentChildrenCount":{"review":0,"lead":0},"contact":{"phone":"02 9663 8455","website":"https://www.australianturfclub.com.au/"},"content":{"id":20283,"slug":"australian-turf-club"},"location":{"street":"ALISON ROAD","city":"St Pauls","state":"New South Wales","country":"AU","address":"ALISON ROAD RANDWICK  NSW 2031","latitude":-33.913078,"longitude":151.241496,"zip":2031},"status":"trashed","title":"AUSTRALIAN TURF CLUB"}
{"id":63,"category":["rain"],"contentChildrenCount":{"review":0,"lead":0},"contact":{"phone":"02 9344 1233","website":"https://www.myer.com.au/"},"content":{"id":20284,"slug":"myer-maroubra"},"location":{"street":"707 ANZAC PDE","city":"Kingsford","state":"New South Wales","country":"AU","address":"707 ANZAC PDE MAROUBRA JUNCTIO  NSW 2035","latitude":-33.940163,"longitude":151.238425,"zip":2032},"status":"trashed","title":"MYER MAROUBRA"}
{"id":64,"category":["shade"],"contentChildrenCount":{"review":0,"lead":0},"contact":{"phone":"02 96633229","website":"https://www.barbequesgalore.com.au/"},"content":{"id":20285,"slug":"barbeques-galore-moore-park"},"location":{"street":"LEVEL 1, TODMAN AVE & STH DOWLING","city":"Kensington","state":"New South Wales","country":"AU","address":"LEVEL 1, TODMAN AVE & STH DOWLING MOORE PARK  NSW 2033","latitude":-33.904255,"longitude":151.214604,"zip":2033},"status":"trashed","title":"BARBEQUES GALORE MOORE PARK"}
{"id":65,"category":["beach"],"contentChildrenCount":{"review":0,"lead":0},"contact":{"phone":"02 9664 5635","website":"https://coogeesurfco.com/"},"content":{"id":20286,"slug":"coogee-surf-shop"},"location":{"street":"228 COOGEE BAY ROAD","city":"Coogee","state":"New South Wales","country":"AU","address":"228 COOGEE BAY ROAD COOGEE  NSW 2034","latitude":-33.920427,"longitude":151.255267,"zip":2034},"status":"trashed","title":"COOGEE SURF SHOP"}
{"id":66,"category":["rain"],"contentChildrenCount":{"review":0,"lead":0},"contact":{"phone":"02 9384 3222","website":"https://www.davidjones.com/"},"content":{"id":20287,"slug":"david-jones-pagewood"},"location":{"street":"CNR BUNNERONG RD &","city":"Pagewood","state":"New South Wales","country":"AU","address":"CNR BUNNERONG RD & PAGEWOOD  NSW 2035","latitude":-33.944826,"longitude":151.224329,"zip":2035},"status":"trashed","title":"DAVID JONES PAGEWOOD"}
{"id":67,"category":["rain"],"contentChildrenCount":{"review":0,"lead":0},"contact":{"phone":"02 9314 1798","website":"https://www.lowes.com.au/"},"content":{"id":20288,"slug":"lowes-pagewood"},"location":{"street":"SHOP 218 WESTFIELD SHOP/TOWN","city":"Pagewood","state":"New South Wales","country":"AU","address":"SHOP 218 WESTFIELD SHOP/TOWN PAGEWOOD  NSW 2035","latitude":-33.944,"longitude":151.225794,"zip":2035},"status":"trashed","title":"LOWES PAGEWOOD"}
{"id":68,"category":["rain"],"contentChildrenCount":{"review":0,"lead":0},"contact":{"phone":"02 9353 1100","website":"https://www.myer.com.au/"},"content":{"id":20289,"slug":"myer-eastgardens"},"location":{"street":"152 BUNNERONG ROAD","city":"Eastgardens","state":"New South Wales","country":"AU","address":"152 BUNNERONG ROAD EASTGARDENS  NSW 2036","latitude":-33.944826,"longitude":151.224329,"zip":2036},"status":"trashed","title":"MYER EASTGARDENS"}
{"id":69,"contentChildrenCount":{"review":0,"lead":0},"contact":{"phone":"02 8336 6900","website":"http://www.penline.com.au/"},"content":{"id":20290,"slug":"penline-mon-ami-aust-p-ltd"},"location":{"street":"2/130 DENISON STREET","city":"Hillsdale","state":"New South Wales","country":"AU","address":"2/130 DENISON STREET MATRAVILLE  NSW 2036","latitude":-33.950106,"longitude":151.224269,"zip":2036},"status":"trashed","title":"PENLINE MON AMI  AUST  P/LTD"}
{"id":70,"category":["beach","rain"],"contentChildrenCount":{"review":0,"lead":0},"contact":{"phone":"02 9660 6919","website":"https://www.cincottachemist.com.au/"},"content":{"id":20291,"slug":"cincotta-pharmacy-glebe"},"location":{"street":"53-55 CLEBE POINT ROAD","city":"Glebe","state":"New South Wales","country":"AU","address":"53-55 CLEBE POINT ROAD GLEBE  NSW 2037","latitude":-33.882961,"longitude":151.191472,"zip":2037},"status":"trashed","title":"CINCOTTA PHARMACY GLEBE"}
{"id":71,"category":["beach","rain"],"contentChildrenCount":{"review":0,"lead":0},"contact":{"phone":"02 96601276","website":"https://annandalevillagepharmacy.com"},"content":{"id":20292,"slug":"annandale-village-pharmacy"},"location":{"street":"107 CNR JOHNSTON & BOOTH STREETS","city":"Annandale","state":"New South Wales","country":"AU","address":"107 CNR JOHNSTON & BOOTH STREETS ANNANDALE  NSW 2038","latitude":-33.881355,"longitude":151.170875,"zip":2038},"status":"trashed","title":"ANNANDALE VILLAGE PHARMACY"}
{"id":72,"category":["shade"],"contentChildrenCount":{"review":0,"lead":0},"contact":{"phone":"02 9557 9411","website":"https://www.barbequesgalore.com.au/"},"content":{"id":20293,"slug":"barbeques-galore-camperdown"},"location":{"street":"GI/ 212-220 PARRAMATTA ROAD","city":"Annandale","state":"New South Wales","country":"AU","address":"GI/ 212-220 PARRAMATTA ROAD ANNANDALE  NSW 2038","latitude":-33.887263,"longitude":151.172509,"zip":2038},"status":"trashed","title":"BARBEQUES GALORE CAMPERDOWN"}
{"id":73,"category":["rain"],"contentChildrenCount":{"review":0,"lead":0},"contact":{"phone":"02 9810 1372","website":"https://www.youngspharmacyrozelle.com/"},"content":{"id":20294,"slug":"youngs-pharmacy-rozelle"},"location":{"street":"SHOP 1, 728 DARLING STREET","city":"Rozelle","state":"New South Wales","country":"AU","address":"SHOP 1, 728 DARLING STREET ROZELLE  NSW 2039","latitude":-33.864986,"longitude":151.168475,"zip":2039},"status":"trashed","title":"YOUNGS PHARMACY ROZELLE"}
{"id":74,"category":["furniture","shade"],"contentChildrenCount":{"review":0,"lead":0},"contact":{"phone":"02 9518 1425","website":"https://www.hsw.com.au/"},"content":{"id":20295,"slug":"howards-storage-leichhardt"},"location":{"street":"SHOP 8 NORTON PLAZA, 55 NORTON STREET","city":"Leichhardt","state":"New South Wales","country":"AU","address":"SHOP 8 NORTON PLAZA, 55 NORTON STREET LEICHHARDT  NSW 2040","latitude":-33.886145,"longitude":151.158105,"zip":2040},"status":"trashed","title":"HOWARDS STORAGE LEICHHARDT"}
{"id":75,"category":["rain"],"contentChildrenCount":{"review":0,"lead":0},"contact":{"phone":"02 9560 3501","website":"https://www.lowes.com.au/"},"content":{"id":20296,"slug":"lowes-leichhardt-m-pl"},"location":{"street":"SHOP T51 MARKETPLACE","city":"Leichhardt","state":"New South Wales","country":"AU","address":"SHOP T51 MARKETPLACE LEICHHARDT  NSW 2040","latitude":-33.885259,"longitude":151.149804,"zip":2040},"status":"trashed","title":"LOWES LEICHHARDT M/PL"}
{"id":76,"category":["beach","rain"],"contentChildrenCount":{"review":0,"lead":0},"contact":{"phone":"02 9519 4247","website":"https://www.healthdirect.gov.au/"},"content":{"id":20297,"slug":"carillon-compounding-pharmacy"},"location":{"street":"100 CARILLON AVENUE,","city":"Newtown","state":"New South Wales","country":"AU","address":"100 CARILLON AVENUE, NEWTOWN  NSW 2042","latitude":-33.891676,"longitude":151.18343,"zip":2042},"status":"trashed","title":"CARILLON COMPOUNDING PHARMACY"}
{"id":77,"category":["beach","rain"],"contentChildrenCount":{"review":0,"lead":0},"contact":{"phone":"02 9557 2646","website":"https://www.healthdirect.gov.au/"},"content":{"id":20298,"slug":"chemist-on-king"},"location":{"street":"205 KING STREET","city":"Newtown","state":"New South Wales","country":"AU","address":"205 KING STREET NEWTOWN  NSW 2042","latitude":-33.894838,"longitude":151.181955,"zip":2042},"status":"trashed","title":"CHEMIST ON KING"}
{"id":78,"category":["beach","rain"],"contentChildrenCount":{"review":0,"lead":0},"contact":{"phone":"02 9557 4511","website":"https://www.cincottachemist.com.au/"},"content":{"id":20299,"slug":"cincotta-chemist-enmore"},"location":{"street":"134-146 ENMORE ROAD","city":"Newtown","state":"New South Wales","country":"AU","address":"134-146 ENMORE ROAD ENMORE  NSW 2042","latitude":-33.899065,"longitude":151.173837,"zip":2042},"status":"trashed","title":"CINCOTTA CHEMIST ENMORE"}
{"id":79,"category":["shade"],"contentChildrenCount":{"review":0,"lead":0},"contact":{"phone":"02 9565 5555","website":"https://www.mitre10.com.au/"},"content":{"id":20300,"slug":"sunlite-m-10-newtown"},"location":{"street":"267 KING STREET","city":"Newtown","state":"New South Wales","country":"AU","address":"267 KING STREET NEWTOWN  NSW 2042","latitude":-33.896139,"longitude":151.180321,"zip":2042},"status":"trashed","title":"SUNLITE M/10 NEWTOWN"}
{"id":80,"category":["rain"],"contentChildrenCount":{"review":0,"lead":0},"contact":{"phone":"02 9713 4729","website":"https://www.pharmacy4less.com.au/"},"content":{"id":20301,"slug":"pharmacy-4-less-great-nth-rd"},"location":{"street":"1A/125 GREAT NORTH RD","city":"Five Dock","state":"New South Wales","country":"AU","address":"1A/125 GREAT NORTH RD FIVE DOCK  NSW 2046","latitude":-33.868633,"longitude":151.129306,"zip":2046},"status":"trashed","title":"PHARMACY 4 LESS GREAT NTH RD"}
{"id":81,"category":["rain"],"contentChildrenCount":{"review":0,"lead":0},"contact":{"phone":"02 9713 7015","website":"https://www.pussnpoochgallery.com.au/"},"content":{"id":20302,"slug":"puss-n-pooch-gallery-pty-ltd"},"location":{"street":"32 NOBLE STREET","city":"Rodd Point","state":"New South Wales","country":"AU","address":"32 NOBLE STREET RODD POINT  NSW 2046","latitude":-33.864479,"longitude":151.139569,"zip":2046},"status":"trashed","title":"PUSS N' POOCH GALLERY PTY LTD"}
{"id":82,"category":["furniture","shade"],"contentChildrenCount":{"review":0,"lead":0},"contact":{"phone":"02 9181 2434","website":"https://destros-pharmacy.business.site/"},"content":{"id":20303,"slug":"destros-pharmacy"},"location":{"street":"197-201 VICTORIA ROAD","city":"Drummoyne","state":"New South Wales","country":"AU","address":"197-201 VICTORIA ROAD DRUMMOYNE  NSW 2047","latitude":-33.851041,"longitude":151.153913,"zip":2047},"status":"trashed","title":"DESTRO'S PHARMACY"}
{"id":83,"category":["furniture","shade"],"contentChildrenCount":{"review":0,"lead":0},"contact":{"phone":"02 9564 1888","website":"https://hickeyandco.com/"},"content":{"id":20304,"slug":"hickey-co"},"location":{"street":"45-49 CRYSTAL STREET","city":"Petersham","state":"New South Wales","country":"AU","address":"45-49 CRYSTAL STREET PETERSHAM  NSW 2049","latitude":-33.891025,"longitude":151.158707,"zip":2049},"status":"trashed","title":"HICKEY & CO"}
{"id":84,"category":["rain"],"contentChildrenCount":{"review":0,"lead":0},"contact":{"phone":"02 9560 2331","website":"https://auspost.com.au/"},"content":{"id":20305,"slug":"petersham-post-office"},"location":{"street":"89-91 AUDLEY STREET","city":"Petersham","state":"New South Wales","country":"AU","address":"89-91 AUDLEY STREET PETERSHAM  NSW 2049","latitude":-33.895319,"longitude":151.154414,"zip":2049},"status":"trashed","title":"PETERSHAM POST OFFICE"}
{"id":85,"contentChildrenCount":{"review":0,"lead":0},"contact":{"phone":"02 9557 9333","website":"https://www.macpac.com.au/"},"content":{"id":20306,"slug":"rays-outdoors-camperdown"},"location":{"street":"93-99 PARRAMATTA ROAD","city":"Camperdown","state":"New South Wales","country":"AU","address":"93-99 PARRAMATTA ROAD CAMPERDOWN  NSW 2050","latitude":-33.886948,"longitude":151.177013,"zip":2050},"status":"trashed","title":"RAYS OUTDOORS CAMPERDOWN"}
{"id":86,"category":["beach","rain"],"contentChildrenCount":{"review":0,"lead":0},"contact":{"phone":"02 9460 0043"},"content":{"id":20307,"slug":"chesters-pharmacy"},"location":{"street":"SHOP 3/100 BAY ROAD","city":"Waverton","state":"New South Wales","country":"AU","address":"SHOP 3/100 BAY ROAD WAVERTON  NSW 2060","latitude":-33.837769,"longitude":151.197101,"zip":2060},"status":"trashed","title":"CHESTER'S PHARMACY"}
{"id":87,"category":["rain"],"contentChildrenCount":{"review":0,"lead":0},"contact":{"phone":"02 9955 6051","website":"https://homegivingsydney.com.au/"},"content":{"id":20308,"slug":"home-giving-at-north-sydney"},"location":{"street":"GREENWOOD PLAZA, SHOP 6 & 7,","city":"North Sydney","state":"New South Wales","country":"AU","address":"GREENWOOD PLAZA, SHOP 6 & 7, NORTH SYDNEY  NSW 2055","latitude":-33.840184,"longitude":151.207384,"zip":2060},"status":"trashed","title":"HOME & GIVING at NORTH SYDNEY"}
{"id":88,"category":["furniture"],"contentChildrenCount":{"review":0,"lead":0},"contact":{"phone":"02 9955 5691","website":"http://www.informcompoundingpharmacy.com.au/"},"content":{"id":20309,"slug":"north-syd-discount-drug-store"},"location":{"street":"68 WALKER ST","city":"North Sydney","state":"New South Wales","country":"AU","address":"68 WALKER ST NORTH SYDNEY  NSW 2060","latitude":-33.839328,"longitude":151.208453,"zip":2060},"status":"trashed","title":"NORTH SYD DISCOUNT DRUG STORE"}
{"id":89,"category":["rain"],"contentChildrenCount":{"review":0,"lead":0},"contact":{"phone":"02 9958 7229","website":"https://www.healthdirect.gov.au/"},"content":{"id":20310,"slug":"northbridge-pharmacy"},"location":{"street":"2/115 SAILORS BAY RD","city":"Northbridge","state":"Western Australia","country":"AU","address":"2/115 SAILORS BAY RD NORTHBRIDGE  NSW 2063","latitude":-33.810313,"longitude":151.209328,"zip":6003},"status":"trashed","title":"NORTHBRIDGE PHARMACY"}
{"id":90,"category":["shade"],"contentChildrenCount":{"review":0,"lead":0},"contact":{"phone":"02 9420 2373","website":"https://www.barbequesgalore.com.au/"},"content":{"id":20311,"slug":"barbeques-galore-artarmon"},"location":{"street":"481 PACIFIC HIGHWAY","city":"Artarmon","state":"New South Wales","country":"AU","address":"481 PACIFIC HIGHWAY ARTARMON  NSW 2064","latitude":-33.809999,"longitude":151.178237,"zip":2064},"status":"trashed","title":"BARBEQUES GALORE ARTARMON"}
{"id":91,"category":["rain"],"contentChildrenCount":{"review":0,"lead":0},"contact":{"phone":"02 9436 4428","website":"https://soulpattinson.com.au/"},"content":{"id":20312,"slug":"crows-nest-soul-pattinson"},"location":{"street":"29A WILLOUGHBY RD &","city":"Crows Nest","state":"New South Wales","country":"AU","address":"29A WILLOUGHBY RD & CROWS NEST  NSW 2065","latitude":-33.826865,"longitude":151.201244,"zip":2065},"status":"trashed","title":"CROWS NEST SOUL PATTINSON"}
{"id":92,"category":["beach","rain"],"contentChildrenCount":{"review":0,"lead":0},"contact":{"phone":"02 9437 5100","website":"http://www.customisedcorporategifts.com.au/"},"content":{"id":20313,"slug":"emotif-golf-pty-ltd"},"location":{"street":"79-81 CHANDOS STREET","city":"St Leonards","state":"New South Wales","country":"AU","address":"79-81 CHANDOS STREET ST LEONARDS P.O.  NSW 1590","latitude":-33.822308,"longitude":151.198538,"zip":2065},"status":"trashed","title":"EMOTIF GOLF PTY LTD"}
{"id":93,"category":["beach","rain"],"contentChildrenCount":{"review":0,"lead":0},"contact":{"phone":"02 9436 0999","website":"https://www.engravingking.com.au/"},"content":{"id":20314,"slug":"engraving-king"},"location":{"street":"SHOP 5P, 201-205 PACIFIC HIGHWAY","city":"St Leonards","state":"New South Wales","country":"AU","address":"SHOP 5P, 201-205 PACIFIC HIGHWAY ST LEONARDS  NSW 2065","latitude":-33.823012,"longitude":151.194313,"zip":2065},"status":"trashed","title":"ENGRAVING KING"}
{"id":94,"category":["beach","rain"],"contentChildrenCount":{"review":0,"lead":0},"contact":{"phone":"02 9439 9980","website":"https://www.priceline.com.au/"},"content":{"id":20315,"slug":"forum-pharmacy-st-leonards"},"location":{"street":"SHOP3/PS, 201-205 PACIFIC HIGHWAY","city":"St Leonards","state":"New South Wales","country":"AU","address":"SHOP3/PS, 201-205 PACIFIC HIGHWAY ST LEONARDS  NSW 2065","latitude":-33.823005,"longitude":151.195243,"zip":2065},"status":"trashed","title":"FORUM PHARMACY ST LEONARDS"}
{"id":95,"category":["beach","rain"],"contentChildrenCount":{"review":0,"lead":0},"contact":{"phone":"02 9436 1675","website":"https://greenwichpharmacy.com.au/"},"content":{"id":20316,"slug":"greenwich-village-pharmacy"},"location":{"street":"95 GREENWICH RD","city":"Greenwich","state":"New South Wales","country":"AU","address":"95 GREENWICH RD GREENWICH  NSW 2065","latitude":-33.831551,"longitude":151.186129,"zip":2065},"status":"trashed","title":"GREENWICH VILLAGE PHARMACY"}
{"id":96,"category":["rain"],"contentChildrenCount":{"review":0,"lead":0},"contact":{"phone":"0466 998659"},"content":{"id":20317,"slug":"travel-bug-luggage"},"location":{"street":"95 LONGUEVILE ROAD","city":"Lane Cove","state":"New South Wales","country":"AU","address":"95 LONGUEVILE ROAD LANE COVE  NSW 1595","latitude":-33.813736,"longitude":151.169747,"zip":2066},"status":"trashed","title":"TRAVEL BUG LUGGAGE"}
{"id":97,"category":["beach","rain"],"contentChildrenCount":{"review":0,"lead":0},"contact":{"phone":"02 9413 2046","website":"https://www.cancercouncil.com.au/"},"content":{"id":20318,"slug":"cancer-council-chatswood"},"location":{"street":"SHOP LG B-18 THE CHASE SH.CTN","city":"Chatswood","state":"New South Wales","country":"AU","address":"SHOP LG B-18 THE CHASE SH.CTN CHATSWOOD  NSW 2067","latitude":-33.79461,"longitude":151.185615,"zip":2067},"status":"trashed","title":"CANCER COUNCIL CHATSWOOD"}
{"id":98,"category":["rain"],"contentChildrenCount":{"review":0,"lead":0},"contact":{"phone":"02 9844 4111","website":"https://www.davidjones.com/"},"content":{"id":20319,"slug":"david-jones-chatswood"},"location":{"street":"91 ARCHER ST","city":"Chatswood","state":"New South Wales","country":"AU","address":"91 ARCHER ST CHATSWOOD  NSW 2067","latitude":-33.793898,"longitude":151.184816,"zip":2067},"status":"trashed","title":"DAVID JONES CHATSWOOD"}
{"id":99,"category":["rain"],"contentChildrenCount":{"review":0,"lead":0},"contact":{"phone":"02 9419 8046","website":"https://www.lowes.com.au/"},"content":{"id":20320,"slug":"lowes-chatswood"},"location":{"street":"346 VICTORIA AVE","city":"Chatswood","state":"New South Wales","country":"AU","address":"346 VICTORIA AVE CHATSWOOD  NSW 2067","latitude":-33.796238,"longitude":151.184269,"zip":2067},"status":"trashed","title":"LOWES CHATSWOOD"}
{"id":100,"category":["rain"],"contentChildrenCount":{"review":0,"lead":0},"contact":{"phone":"02 9412 0111","website":"https://www.myer.com.au/"},"content":{"id":20321,"slug":"myer-chatswood"},"location":{"street":"VICTOR ST","city":"Chatswood","state":"New South Wales","country":"AU","address":"VICTOR ST CHATSWOOD  NSW 2067","latitude":-33.798542,"longitude":151.183092,"zip":2067},"status":"trashed","title":"MYER CHATSWOOD"}
{"id":101,"category":["rain"],"contentChildrenCount":{"review":0,"lead":0},"contact":{"phone":"02 9419 4626","website":"http://www.chatswoodcompounding.com.au/"},"content":{"id":20322,"slug":"shands-chatswood-compounding"},"location":{"street":"428 VICTORIA AVENUE","city":"Chatswood","state":"New South Wales","country":"AU","address":"428 VICTORIA AVENUE CHATSWOOD  NSW 2057","latitude":-33.796949,"longitude":151.181592,"zip":2067},"status":"trashed","title":"SHANDS CHATSWOOD COMPOUNDING"}
{"id":102,"category":["beach","rain"],"contentChildrenCount":{"review":0,"lead":0},"contact":{"phone":"02 9958 8352","website":"https://www.healthdirect.gov.au/"},"content":{"id":20323,"slug":"andersons-pharmacy"},"location":{"street":"69 PENSHURST ST","city":"Willoughby","state":"New South Wales","country":"AU","address":"69 PENSHURST ST WILLOUGHBY  NSW 2068","latitude":-33.801231,"longitude":151.198992,"zip":2068},"status":"trashed","title":"ANDERSON'S PHARMACY"}
{"id":103,"category":["furniture","shade"],"contentChildrenCount":{"review":0,"lead":0},"contact":{"phone":"02 9498 4808","website":"https://www.healthdirect.gov.au/"},"content":{"id":20324,"slug":"east-killara-pharmacy"},"location":{"street":"SHOP 9, 50 KOOLA AVE","city":"East Killara","state":"New South Wales","country":"AU","address":"SHOP 9, 50 KOOLA AVE KILLARA  NSW 2071","latitude":-33.753507,"longitude":151.175961,"zip":2071},"status":"trashed","title":"EAST KILLARA PHARMACY"}
{"id":104,"category":["shade"],"contentChildrenCount":{"review":0,"lead":0},"contact":{"phone":"02 9496 9200","website":"https://www.harveynorman.com.au/"},"content":{"id":20325,"slug":"harvey-norman-gordon"},"location":{"street":"LEVEL 1, 802-808 PACIFIC HIGHWAY","city":"Gordon","state":"New South Wales","country":"AU","address":"LEVEL 1, 802-808 PACIFIC HIGHWAY GORDON  NSW 2072","latitude":-33.755378,"longitude":151.151844,"zip":2072},"status":"trashed","title":"HARVEY NORMAN GORDON"}
{"id":105,"category":["rain"],"contentChildrenCount":{"review":0,"lead":0},"contact":{"phone":"02 9955 6051"},"content":{"id":20326,"slug":"home-giving-at-north-sydney-1"},"location":{"street":"SHOP 6 & 7, 80 PACIFIC HIGHWAY","city":"Gordon","state":"New South Wales","country":"AU","address":"SHOP 6 & 7, 80 PACIFIC HIGHWAY NORTH SYDNEY  NSW 2055","latitude":-33.840653,"longitude":151.208162,"zip":2060},"status":"trashed","title":"HOME & GIVING at NORTH SYDNEY"}
{"id":106,"category":["rain"],"contentChildrenCount":{"review":0,"lead":0},"contact":{"phone":"02 9144 1651","website":"https://www.healthdirect.gov.au/"},"content":{"id":20327,"slug":"pymble-pharmacy"},"location":{"street":"99-101 GRANDVIEW ST","city":"Pymble","state":"New South Wales","country":"AU","address":"99-101 GRANDVIEW ST PYMBLE  NSW 2073","latitude":-33.74411,"longitude":151.141588,"zip":2073},"status":"trashed","title":"PYMBLE PHARMACY"}
{"id":107,"category":["shade"],"contentChildrenCount":{"review":0,"lead":0},"contact":{"phone":"02 9488 8561","website":"https://www.remarkablefurniture.com.au/"},"content":{"id":20328,"slug":"remarkable-outdoor-living"},"location":{"street":"1001 PACIFIC HIGHWAY","city":"Pymble","state":"New South Wales","country":"AU","address":"1001 PACIFIC HIGHWAY PYMBLE  NSW 2073","latitude":-33.743503,"longitude":151.140845,"zip":2073},"status":"trashed","title":"REMARKABLE OUTDOOR LIVING"}
{"id":108,"category":["furniture","shade"],"contentChildrenCount":{"review":0,"lead":0},"contact":{"phone":"02 9489 4808","website":"https://easternroadpharmacy.com.au/"},"content":{"id":20329,"slug":"eastern-rd-pharmacy"},"location":{"street":"101A EASTERN ROAD","city":"Turramurra","state":"New South Wales","country":"AU","address":"101A EASTERN ROAD TURRAMURRA NSW 2074","latitude":-33.72067,"longitude":151.131138,"zip":2074},"status":"trashed","title":"EASTERN RD PHARMACY"}
{"id":109,"category":["rain"],"contentChildrenCount":{"review":0,"lead":0},"contact":{"phone":"02 9144 5677","website":"https://www.healthdirect.gov.au/"},"content":{"id":20330,"slug":"north-turramurra-pharmacy"},"location":{"street":"280 BOBBIN HEAD RD","city":"North Turramurra","state":"New South Wales","country":"AU","address":"280 BOBBIN HEAD RD TURRAMURRA NORTH  NSW 2074","latitude":-33.713245,"longitude":151.147025,"zip":2074},"status":"trashed","title":"NORTH TURRAMURRA PHARMACY"}
{"id":110,"category":["beach"],"contentChildrenCount":{"review":0,"lead":0},"contact":{"phone":"02 9144 2174","website":"https://www.healthdirect.gov.au/"},"content":{"id":20331,"slug":"turramurra-pharmacy"},"location":{"street":"1293 PACIFIC HIGHWAY","city":"Turramurra","state":"New South Wales","country":"AU","address":"1293 PACIFIC HIGHWAY TURRAMURRA  NSW 2074","latitude":-33.733247,"longitude":151.128327,"zip":2074},"status":"trashed","title":"TURRAMURRA PHARMACY"}
{"id":111,"category":["furniture","shade"],"contentChildrenCount":{"review":0,"lead":0},"contact":{"phone":"02 9144 7011","website":"https://www.mcfaddens.com.au/"},"content":{"id":20332,"slug":"mc-faddens-centre-pharmacy"},"location":{"street":"SHOP 43 REGIONAL SHOP.CENTRE","city":"Saint Ives","state":"New South Wales","country":"AU","address":"SHOP 43 REGIONAL SHOP.CENTRE ST IVES  NSW 2075","latitude":-33.729743,"longitude":151.158687,"zip":2075},"status":"trashed","title":"MC FADDENS CENTRE PHARMACY"}
{"id":112,"category":["rain"],"contentChildrenCount":{"review":0,"lead":0},"contact":{"phone":"02 9489 3180","website":"http://www.wahroongapharmacy.com.au/"},"content":{"id":20333,"slug":"wahroonga-village-pharmacy"},"location":{"street":"4 RAILWAY AVENUE","city":"Wahroonga","state":"New South Wales","country":"AU","address":"4 RAILWAY AVENUE WAHROONGA  NSW 2076","latitude":-33.718567,"longitude":151.117135,"zip":2076},"status":"trashed","title":"WAHROONGA VILLAGE PHARMACY"}
{"id":113,"category":["shade"],"contentChildrenCount":{"review":0,"lead":0},"contact":{"phone":"02 9477 7388","website":"https://www.barbequesgalore.com.au/"},"content":{"id":20334,"slug":"barbeques-galore-hornsby"},"location":{"street":"BRIDGE RD & GEORGE ST","city":"Hornsby","state":"New South Wales","country":"AU","address":"BRIDGE RD & GEORGE ST HORNSBY  NSW 2077","latitude":-33.697486,"longitude":151.100307,"zip":2077},"status":"trashed","title":"BARBEQUES GALORE HORNSBY"}
{"id":114,"category":["beach","rain"],"contentChildrenCount":{"review":0,"lead":0},"contact":{"phone":"02 9457 4200","website":"https://www.cancercouncil.com.au/"},"content":{"id":20335,"slug":"cancer-council-hornsby"},"location":{"street":"SHOP 3010, WESTFIELD SHOPPING CENTRE","city":"Hornsby","state":"New South Wales","country":"AU","address":"SHOP 3010, WESTFIELD SHOPPING CENTRE HORNSBY  NSW 2077","latitude":-33.703621,"longitude":151.102093,"zip":2077},"status":"trashed","title":"CANCER COUNCIL HORNSBY"}
{"id":115,"category":["rain"],"contentChildrenCount":{"review":0,"lead":0},"contact":{"phone":"02 9472 3700","website":"https://www.davidjones.com/"},"content":{"id":20336,"slug":"david-jones-hornsby"},"location":{"street":"WESTFIELD SHOP'CTN CNR PACIFIC","city":"Hornsby","state":"New South Wales","country":"AU","address":"WESTFIELD SHOP'CTN CNR PACIFIC HORNSBY  NSW 2077","latitude":-33.703621,"longitude":151.102093,"zip":2077},"status":"trashed","title":"DAVID JONES HORNSBY"}
{"id":116,"category":["rain"],"contentChildrenCount":{"review":0,"lead":0},"contact":{"phone":"02 9477 5169","website":"https://www.lowes.com.au/"},"content":{"id":20337,"slug":"lowes-hornsby"},"location":{"street":"SH.1063 WESTFIELD SH.CNT,CNR","city":"Hornsby","state":"New South Wales","country":"AU","address":"SH.1063 WESTFIELD SH.CNT,CNR HORNSBY  NSW 2077","latitude":-33.704633,"longitude":151.098706,"zip":2077},"status":"trashed","title":"LOWES   HORNSBY"}
{"id":117,"category":["rain"],"contentChildrenCount":{"review":0,"lead":0},"contact":{"phone":"02 9476 9111","website":"https://www.myer.com.au/"},"content":{"id":20338,"slug":"myer-hornsby"},"location":{"street":"FLORENCE & MURIEL STS","city":"Hornsby","state":"New South Wales","country":"AU","address":"FLORENCE & MURIEL STS HORNSBY  NSW 2077","latitude":-33.704272,"longitude":151.102619,"zip":2077},"status":"trashed","title":"MYER HORNSBY"}
{"id":118,"category":["rain"],"contentChildrenCount":{"review":0,"lead":0},"contact":{"phone":"02 9987 2233","website":"https://www.superpharmacy.com.au/"},"content":{"id":20339,"slug":"superpharmacy-hornsby"},"location":{"street":"21/23 FLORENCE STREET","city":"Hornsby","state":"New South Wales","country":"AU","address":"21/23 FLORENCE STREET HORNSBY  NSW 2077","latitude":-33.703688,"longitude":151.099956,"zip":2077},"status":"trashed","title":"SUPERPHARMACY HORNSBY"}
{"id":119,"category":["furniture","shade"],"contentChildrenCount":{"review":0,"lead":0},"contact":{"phone":"02 9450 1743","website":"https://www.hillstheflowermarket.com.au/"},"content":{"id":20340,"slug":"hills-the-flower-market"},"location":{"street":"287 MONA VALE RD","city":"Terrey Hills","state":"New South Wales","country":"AU","address":"287 MONA VALE RD TERREY HILLS  NSW 2084","latitude":-33.688665,"longitude":151.223655,"zip":2084},"status":"trashed","title":"HILLS THE FLOWER MARKET"}
{"id":120,"category":["furniture","shade"],"contentChildrenCount":{"review":0,"lead":0},"contact":{"phone":"02 9986 2251","website":"https://www.outdoorelegance.com.au/"},"content":{"id":20341,"slug":"outdoor-elegance-terry-hills"},"location":{"street":"339 Mona Vale Road","city":"Terrey Hills","state":"New South Wales","country":"AU","address":"339 Mona Vale Road, Terrey Hills NSW, Australia","latitude":-33.699852,"longitude":151.213136,"zip":2084},"status":"trashed","title":"OUTDOOR ELEGANCE TERRY HILLS"}
{"id":121,"category":["shade"],"contentChildrenCount":{"review":0,"lead":0},"contact":{"phone":"02 9986 1941","website":"https://www.barbequesgalore.com.au/"},"content":{"id":20342,"slug":"barbeques-galore-belrose"},"location":{"street":"T2,BELROSE S/C NIANGLA CL","city":"Belrose","state":"New South Wales","country":"AU","address":"T2,BELROSE S/C NIANGLA CL BELROSE  NSW 2085","latitude":-33.703477,"longitude":151.213149,"zip":2085},"status":"trashed","title":"BARBEQUES GALORE BELROSE"}
{"id":122,"category":["beach","rain"],"contentChildrenCount":{"review":0,"lead":0},"contact":{"phone":"02 9986 3331","website":"https://www.cincottachemist.com.au/"},"content":{"id":20343,"slug":"cincotta-chemist-belrose"},"location":{"street":"SHOP G05,4-6 NIANGALA CLOSE","city":"Belrose","state":"New South Wales","country":"AU","address":"SHOP G05,4-6 NIANGALA CLOSE KILLARA  NSW 2071","latitude":-33.704305,"longitude":151.212779,"zip":2085},"status":"trashed","title":"CINCOTTA CHEMIST BELROSE"}
{"id":123,"category":["shade"],"contentChildrenCount":{"review":0,"lead":0},"contact":{"phone":"02 9479 8860","website":"https://www.domayne.com.au/"},"content":{"id":20344,"slug":"domayne-belrose"},"location":{"street":"HOMEMAKER SUPA CNT TENANCY GO1","city":"Belrose","state":"New South Wales","country":"AU","address":"HOMEMAKER SUPA CNT TENANCY GO1 BELROSE  NSW 2085","latitude":-33.72829,"longitude":151.217913,"zip":2085},"status":"trashed","title":"DOMAYNE BELROSE"}
{"id":124,"category":["rain"],"contentChildrenCount":{"review":0,"lead":0},"contact":{"phone":"02 9479 7732","website":"https://www.strandbags.com.au/"},"content":{"id":20345,"slug":"strandbags-group-pty-ltd"},"location":{"street":"2 MINNA CLOSE","city":"Belrose","state":"New South Wales","country":"AU","address":"2 MINNA CLOSE BELROSE NSW 2085","latitude":-33.703181,"longitude":151.209607,"zip":2085},"status":"trashed","title":"STRANDBAGS GROUP PTY LTD"}
{"id":125,"category":["beach"],"contentChildrenCount":{"review":0,"lead":0},"contact":{"phone":"02 9968 2231","website":"http://bridgepointmosman.com.au/"},"content":{"id":20346,"slug":"bridge-point-pharmacy"},"location":{"street":"BRIDGE POINT SHOP.CENTRE","city":"Mosman","state":"New South Wales","country":"AU","address":"BRIDGE POINT SHOP.CENTRE MOSMAN  NSW 2088","latitude":-33.823755,"longitude":151.240487,"zip":2088},"status":"trashed","title":"BRIDGE POINT PHARMACY"}
{"id":126,"category":["shade"],"contentChildrenCount":{"review":0,"lead":0},"contact":{"phone":"02 9969 5102","website":"https://www.mitre10.com.au/"},"content":{"id":20347,"slug":"sunlite-mitre-10-mosman"},"location":{"street":"874 MILITARY ROAD","city":"Mosman","state":"New South Wales","country":"AU","address":"874 MILITARY ROAD MOSMAN  NSW 2088","latitude":-33.829861,"longitude":151.244444,"zip":2088},"status":"trashed","title":"SUNLITE MITRE 10 MOSMAN"}
{"id":127,"category":["shade"],"contentChildrenCount":{"review":0,"lead":0},"contact":{"phone":"02 9969 1011","website":"https://surfectionmosman.com/"},"content":{"id":20348,"slug":"surfection"},"location":{"street":"522 MILITARY ROAD","city":"Mosman","state":"New South Wales","country":"AU","address":"522 MILITARY ROAD MOSMAN  NSW 2088","latitude":-33.8245,"longitude":151.23458,"zip":2088},"status":"trashed","title":"SURFECTION"}
{"id":128,"category":["beach","rain"],"contentChildrenCount":{"review":0,"lead":0},"contact":{"phone":"02 9953 0609","website":"https://www.cincottachemist.com.au/"},"content":{"id":20349,"slug":"cincotta-pharmacy-neutral-bay"},"location":{"street":"116 MILITARY ROAD","city":"Neutral Bay","state":"New South Wales","country":"AU","address":"116 MILITARY ROAD NEUTRAL BAY  NSW 2089","latitude":-33.829543,"longitude":151.21848,"zip":2089},"status":"trashed","title":"CINCOTTA PHARMACY NEUTRAL BAY"}
{"id":129,"category":["shade"],"contentChildrenCount":{"review":0,"lead":0},"contact":{"phone":"02 9949 0100","website":"https://www.harveynorman.com.au/"},"content":{"id":20350,"slug":"harvey-norman-balgowlah"},"location":{"street":"176-190 CONDAMINE STREET","city":"Balgowlah","state":"New South Wales","country":"AU","address":"176-190 CONDAMINE STREET BALGOWLAH  NSW 2093","latitude":-33.788996,"longitude":151.266443,"zip":2093},"status":"trashed","title":"HARVEY NORMAN BALGOWLAH"}
{"id":130,"category":["furniture","shade"],"contentChildrenCount":{"review":0,"lead":0},"contact":{"phone":"02 9948 6178","website":"https://www.healthdirect.gov.au/"},"content":{"id":20351,"slug":"north-balgowlah-pharmacy"},"location":{"street":"10/44 WOODBINE STREET","city":"North Balgowlah","state":"New South Wales","country":"AU","address":"10/44 WOODBINE STREET NORTH BALGOWLAH  NSW 2093","latitude":-33.786551,"longitude":151.251246,"zip":2093},"status":"trashed","title":"NORTH BALGOWLAH PHARMACY"}
{"id":131,"category":["shade"],"contentChildrenCount":{"review":0,"lead":0},"contact":{"phone":"02 8068 4777","website":"https://manlycobblers.com.au/"},"content":{"id":20352,"slug":"manly-cobblers"},"location":{"street":"SHOP 9, 22 CENTRAL AVENUE","city":"Manly","state":"New South Wales","country":"AU","address":"SHOP 9, 22 CENTRAL AVENUE MANLY  NSW 2095","latitude":-33.796506,"longitude":151.286536,"zip":2095},"status":"trashed","title":"MANLY COBBLERS"}
{"id":132,"category":["furniture","shade"],"contentChildrenCount":{"review":0,"lead":0},"contact":{"phone":"02 9905 2806","website":"https://www.healthdirect.gov.au/"},"content":{"id":20353,"slug":"harbord-pharmacy"},"location":{"street":"23 LAWRENCE STREET","city":"Freshwater","state":"New South Wales","country":"AU","address":"23 LAWRENCE STREET FRESHWATER  NSW 2096","latitude":-33.778676,"longitude":151.284406,"zip":2096},"status":"trashed","title":"HARBORD PHARMACY"}
{"id":133,"category":["beach","rain"],"contentChildrenCount":{"review":0,"lead":0},"contact":{"phone":"02 9913 7833","website":"https://www.larryadler.com/"},"content":{"id":20354,"slug":"larry-adler-ski-outdoor"},"location":{"street":"1024 PITTWATER ROAD","city":"Collaroy","state":"New South Wales","country":"AU","address":"1024 PITTWATER ROAD  COLLAROY NSW 2097","latitude":-33.737068,"longitude":151.30285,"zip":2097},"status":"trashed","title":"LARRY ADLER SKI & OUTDOOR"}
{"id":134,"category":["rain"],"contentChildrenCount":{"review":0,"lead":0},"contact":{"phone":"02 9971 0760","website":"https://wickssurf.com.au/"},"content":{"id":20355,"slug":"wicks-surf-australia-pty-ltd"},"location":{"street":"1103 PITTWATER ROAD","city":"Collaroy","state":"New South Wales","country":"AU","address":"1103 PITTWATER ROAD COLLAROY  NSW 2097","latitude":-33.732601,"longitude":151.30117,"zip":2097},"status":"trashed","title":"WICKS SURF AUSTRALIA PTY LTD"}
{"id":135,"category":["beach","rain"],"contentChildrenCount":{"review":0,"lead":0},"contact":{"phone":"02 9939 2668","website":"https://www.cancercouncil.com.au/"},"content":{"id":20356,"slug":"cancer-council-warringah-mall"},"location":{"street":"SHOP 349,LEVEL 1 WARRINGAH MAL","city":"Dee Why","state":"New South Wales","country":"AU","address":"SHOP 349,LEVEL 1 WARRINGAH MAL BROOKVALE  NSW 2100","latitude":-33.767215,"longitude":151.265369,"zip":2100},"status":"trashed","title":"CANCER COUNCIL WARRINGAH MALL"}
{"id":136,"category":["beach","rain"],"contentChildrenCount":{"review":0,"lead":0},"contact":{"phone":"02 9451 5461","website":"https://allambiepharmacy.com.au/"},"content":{"id":20357,"slug":"allambie-compounding-pharmacy"},"location":{"street":"10 GRIGOR PLACE","city":"Allambie Heights","state":"New South Wales","country":"AU","address":"10 GRIGOR PLACE ALLAMBIE HEIGHTS  NSW 2100","latitude":-33.765784,"longitude":151.250656,"zip":2100},"status":"trashed","title":"ALLAMBIE COMPOUNDING PHARMACY"}
{"id":137,"category":["rain"],"contentChildrenCount":{"review":0,"lead":0},"contact":{"phone":"02 9466 2000","website":"https://www.davidjones.com/"},"content":{"id":20358,"slug":"david-jones-brookvale"},"location":{"street":"WARRINGAH MALL","city":"Brookvale","state":"New South Wales","country":"AU","address":"WARRINGAH MALL BROOKVALE  NSW 2100","latitude":-33.767215,"longitude":151.265369,"zip":2100},"status":"trashed","title":"DAVID JONES BROOKVALE"}
{"id":138,"category":["rain"],"contentChildrenCount":{"review":0,"lead":0},"contact":{"phone":"02 9907 4926","website":"https://www.lowes.com.au/"},"content":{"id":20359,"slug":"lowes-warringah-mall"},"location":{"street":"SHOP 2622 WARRINGAH MALL","city":"Brookvale","state":"New South Wales","country":"AU","address":"SHOP 2622 WARRINGAH MALL BROOKVALE  NSW 2100","latitude":-33.768108,"longitude":151.265718,"zip":2100},"status":"trashed","title":"LOWES WARRINGAH MALL"}
{"id":139,"category":["rain"],"contentChildrenCount":{"review":0,"lead":0},"contact":{"phone":"02 9913 1875","website":"https://www.lowes.com.au/"},"content":{"id":20360,"slug":"lowes-warriewood"},"location":{"street":"SHOP 46 WARRIEWOOD SQUARE","city":"Warriewood","state":"New South Wales","country":"AU","address":"SHOP 46 WARRIEWOOD SQUARE WARRIEWOOD  NSW 2102","latitude":-33.695733,"longitude":151.295871,"zip":2102},"status":"trashed","title":"LOWES WARRIEWOOD"}
{"id":140,"category":["shade"],"contentChildrenCount":{"review":0,"lead":0},"contact":{"phone":"02 9526 1526","website":"https://tuckerbbq.com.au/"},"content":{"id":20361,"slug":"barbeque-factory-p-l-taren-pt"},"location":{"street":"2/91 DARLEY STREET","city":"Mona Vale","state":"New South Wales","country":"AU","address":"2/91 DARLEY STREET MONA VALE  NSW 2103","latitude":-33.675009,"longitude":151.304721,"zip":2103},"status":"trashed","title":"BARBEQUE FACTORY P/L TAREN PT"}
{"id":141,"category":["rain"],"contentChildrenCount":{"review":0,"lead":0},"contact":{"phone":"02 9999 3598","website":"https://www.icarepharmacy.com.au/"},"content":{"id":20362,"slug":"icare-pharmacy-mona-vale"},"location":{"street":"SHOP 1&2, 1785 PITTWATER ROAD","city":"Mona Vale","state":"New South Wales","country":"AU","address":"SHOP 1&2, 1785 PITTWATER ROAD MONA VALE  NSW 2103","latitude":-33.675658,"longitude":151.302933,"zip":2103},"status":"trashed","title":"iCARE PHARMACY MONA VALE"}
{"id":142,"category":["rain"],"contentChildrenCount":{"review":0,"lead":0},"contact":{"phone":"02 9979 9086","website":"https://manlybeachhire.com.au/"},"content":{"id":20363,"slug":"manly-beach-hire-company"},"location":{"street":"12 BANGALOW AVE","city":"Mona Vale","state":"New South Wales","country":"AU","address":"12 BANGALOW AVE MONA VALE  NSW 2103","latitude":-33.668616,"longitude":151.307043,"zip":2103},"status":"trashed","title":"MANLY BEACH HIRE COMPANY"}
{"id":143,"category":["rain"],"contentChildrenCount":{"review":0,"lead":0},"contact":{"phone":"02 9997 5328","website":"https://monavaleshoes.com/"},"content":{"id":20364,"slug":"mona-vale-village-shoe-repairs"},"location":{"street":"SHOP 2, 17 BUNGAN STREET","city":"Mona Vale","state":"New South Wales","country":"AU","address":"SHOP 2, 17 BUNGAN STREET MONA VALE  NSW 2103","latitude":-33.676646,"longitude":151.302493,"zip":2103},"status":"trashed","title":"MONA VALE VILLAGE SHOE REPAIRS"}
{"id":144,"category":["rain"],"contentChildrenCount":{"review":0,"lead":0},"contact":{"phone":"02 9997 4488","website":"https://www.terrywhitechemmart.com.au/"},"content":{"id":20365,"slug":"plunketts-pharmacy"},"location":{"street":"9/17 BUNGAN STREET","city":"Mona Vale","state":"New South Wales","country":"AU","address":"9/17 BUNGAN STREET MONA VALE  NSW 2103","latitude":-33.676491,"longitude":151.302302,"zip":2103},"status":"trashed","title":"PLUNKETTS PHARMACY"}
{"id":145,"category":["rain"],"contentChildrenCount":{"review":0,"lead":0},"contact":{"phone":"02 9999 1896","website":"https://www.acmemerch.com.au/"},"content":{"id":20366,"slug":"newport-beach-menswear"},"location":{"street":"367 BARRENJOEY ROAD","city":"Newport","state":"New South Wales","country":"AU","address":"367 BARRENJOEY ROAD NEWPORT BEACH  NSW 2106","latitude":-33.654303,"longitude":151.320816,"zip":2106},"status":"trashed","title":"NEWPORT BEACH MENSWEAR"}
{"id":146,"category":["rain"],"contentChildrenCount":{"review":0,"lead":0},"contact":{"phone":"02 9999 1553","website":"https://www.newportpharmacy.com.au/"},"content":{"id":20367,"slug":"newport-pharmacy"},"location":{"street":"347 BARRENJOEY RD","city":"Newport","state":"New South Wales","country":"AU","address":"347 BARRENJOEY RD NEWPORT BEACH  NSW 2106","latitude":-33.655175,"longitude":151.31998,"zip":2106},"status":"trashed","title":"NEWPORT PHARMACY"}
{"id":147,"category":["shade"],"contentChildrenCount":{"review":0,"lead":0},"contact":{"phone":"02 9918 2763","website":"https://www.beachwithoutsand.com.au/"},"content":{"id":20368,"slug":"beach-without-sand"},"location":{"street":"12 BAREENA ROAD","city":"Avalon Beach","state":"New South Wales","country":"AU","address":"12 BAREENA ROAD AVALON NORTH  NSW 2107","latitude":-33.626035,"longitude":151.335899,"zip":2107},"status":"trashed","title":"BEACH WITHOUT SAND"}
{"id":148,"category":["rain"],"contentChildrenCount":{"review":0,"lead":0},"contact":{"phone":"02 9973 1277","website":"https://yousavechemist.com.au/"},"content":{"id":20369,"slug":"herforts-yousave-chemist"},"location":{"street":"60 OLD BARRENJOEY RD","city":"Avalon Beach","state":"New South Wales","country":"AU","address":"60 OLD BARRENJOEY RD AVALON  NSW 2107","latitude":-33.637266,"longitude":151.329245,"zip":2107},"status":"trashed","title":"HERFORTS YOUSAVE CHEMIST"}
{"id":149,"category":["furniture","shade"],"contentChildrenCount":{"review":0,"lead":0},"contact":{"phone":"02 9816 5999","website":"https://seymourbuildingsupplies.com.au/"},"content":{"id":20370,"slug":"seymour-bld-supplies"},"location":{"street":"327 VICTORIA ROAD","city":"Gladesville","state":"New South Wales","country":"AU","address":"327 VICTORIA ROAD GLADESVILLE  NSW 2111","latitude":-33.826477,"longitude":151.126425,"zip":2111},"status":"trashed","title":"SEYMOUR BLD SUPPLIES"}
{"id":150,"category":["rain"],"contentChildrenCount":{"review":0,"lead":0},"contact":{"phone":"02 9808 4454","website":"https://www.lowes.com.au/"},"content":{"id":20371,"slug":"lowes-top-ryde"},"location":{"street":"SHOP 2005 LG1,TOP RYDE CITY","city":"Ryde","state":"New South Wales","country":"AU","address":"SHOP 2005 LG1,TOP RYDE CITY RYDE  NSW 2112","latitude":-33.81218,"longitude":151.106019,"zip":2112},"status":"trashed","title":"LOWES TOP RYDE"}
{"id":151,"category":["rain"],"contentChildrenCount":{"review":0,"lead":0},"contact":{"phone":"02 8015 6579","website":"https://www.myer.com.au/"},"content":{"id":20372,"slug":"myer-top-ryde-city"},"location":{"street":"CORNER DEVLIN STREET","city":"Ryde","state":"New South Wales","country":"AU","address":"CORNER DEVLIN STREET TOP RYDE  NSW 2112","latitude":-33.812215,"longitude":151.106221,"zip":2112},"status":"trashed","title":"MYER TOP RYDE CITY"}
{"id":152,"category":["rain"],"contentChildrenCount":{"review":0,"lead":0},"contact":{"phone":"02 9812 2200","website":"https://www.davidjones.com/"},"content":{"id":20373,"slug":"david-jones-macquarie-centre"},"location":{"street":"CORNER HERRING & WATERLOO RD","city":"North Ryde","state":"New South Wales","country":"AU","address":"CORNER HERRING & WATERLOO RD NORTH RYDE  NSW 2113","latitude":-33.777414,"longitude":151.118079,"zip":2109},"status":"trashed","title":"DAVID JONES MACQUARIE CENTRE"}
{"id":153,"category":["shade"],"contentChildrenCount":{"review":0,"lead":0},"contact":{"phone":"02 9888 8888","website":"https://www.domayne.com.au/"},"content":{"id":20374,"slug":"domayne-furniture-north-ryde"},"location":{"street":"31-35 EPPING ROAD","city":"North Ryde","state":"New South Wales","country":"AU","address":"31-35 EPPING ROAD NORTH RYDE  NSW 2113","latitude":-33.792073,"longitude":151.132714,"zip":2113},"status":"trashed","title":"DOMAYNE FURNITURE NORTH RYDE"}
{"id":154,"category":["rain"],"contentChildrenCount":{"review":0,"lead":0},"contact":{"phone":"02 9888 6655","website":"https://www.hsw.com.au/"},"content":{"id":20375,"slug":"howards-storage-macquarie"},"location":{"street":"SHOP 420 MACQUARIE SHOP.CTRE","city":"North Ryde","state":"New South Wales","country":"AU","address":"SHOP 420 MACQUARIE SHOP.CTRE NORTH RYDE  NSW 2113","latitude":-33.777251,"longitude":151.121135,"zip":2113},"status":"trashed","title":"HOWARDS STORAGE MACQUARIE"}
{"id":155,"category":["rain"],"contentChildrenCount":{"review":0,"lead":0},"contact":{"phone":"02 9887 0148","website":"https://www.lowes.com.au/"},"content":{"id":20376,"slug":"lowes-macquarie"},"location":{"street":"SHOP 25, MACQUARIE SHOPPING CENTRE","city":"North Ryde","state":"New South Wales","country":"AU","address":"SHOP 25, MACQUARIE SHOPPING CENTRE NORTH RYDE  NSW 2113","latitude":-33.777251,"longitude":151.121135,"zip":2113},"status":"trashed","title":"LOWES MACQUARIE"}
{"id":156,"category":["rain"],"contentChildrenCount":{"review":0,"lead":0},"contact":{"phone":"02 9887 0122","website":"https://www.myer.com.au/"},"content":{"id":20377,"slug":"myer-macquarie"},"location":{"street":"MACQUARIE CENTRE, Herring Road","city":"Macquarie Park","state":"New South Wales","country":"AU","address":"MACQUARIE CENTRE, Herring Road NORTH RYDE  NSW 2113","latitude":-33.776719,"longitude":151.120517,"zip":2113},"status":"trashed","title":"MYER MACQUARIE"}
{"id":157,"category":["rain"],"contentChildrenCount":{"review":0,"lead":0},"contact":{"phone":"02 9638 3155","website":"https://spharm16.wixsite.com/"},"content":{"id":20378,"slug":"springfield-pharmacy"},"location":{"street":"16 STATION ST","city":"Dundas","state":"New South Wales","country":"AU","address":"16 STATION ST DUNDAS  NSW 2117","latitude":-33.804535,"longitude":151.033467,"zip":2117},"status":"trashed","title":"SPRINGFIELD PHARMACY"}
{"id":158,"category":["beach","rain"],"contentChildrenCount":{"review":0,"lead":0},"contact":{"phone":"02 9871 3848","website":"https://carmendrivepharmacy.com.au/"},"content":{"id":20379,"slug":"carmen-dr-community-pharmacy"},"location":{"street":"4 CARMEN DRIVE","city":"Carlingford","state":"New South Wales","country":"AU","address":"4 CARMEN DRIVE CARLINGFORD  NSW 2118","latitude":-33.760932,"longitude":151.041379,"zip":2118},"status":"trashed","title":"CARMEN DR COMMUNITY PHARMACY"}
{"id":159,"category":["rain"],"contentChildrenCount":{"review":0,"lead":0},"contact":{"phone":"02 9683 3079","website":"https://kingsdenepharmacy.com/"},"content":{"id":20380,"slug":"kingsdene-pharmacy"},"location":{"street":"144B FELTON ROAD","city":"Carlingford","state":"New South Wales","country":"AU","address":"144B FELTON ROAD CARLINGFORD  NSW 2118","latitude":-33.784364,"longitude":151.028525,"zip":2118},"status":"trashed","title":"KINGSDENE PHARMACY"}
{"id":160,"category":["rain"],"contentChildrenCount":{"review":0,"lead":0},"contact":{"phone":"02 9872 6111","website":"https://www.myer.com.au/"},"content":{"id":20381,"slug":"myer-carlingford"},"location":{"street":"CNR PENNANT HILLS & CARLINGFORD ROADS","city":"Carlingford","state":"New South Wales","country":"AU","address":"CNR PENNANT HILLS & CARLINGFORD ROADS CARLINGFORD  NSW 2118","latitude":-33.77772,"longitude":151.051822,"zip":2118},"status":"trashed","title":"MYER CARLINGFORD"}
{"id":161,"category":["furniture","shade"],"contentChildrenCount":{"review":0,"lead":0},"contact":{"phone":"02 9876 3175","website":"https://www.terrywhitechemmart.com.au/"},"content":{"id":20382,"slug":"epping-chemmart-pharmacy"},"location":{"street":"36 LANGSTON PLACE","city":"Epping","state":"New South Wales","country":"AU","address":"36 LANGSTON PLACE EPPING  NSW 2121","latitude":-33.772938,"longitude":151.082778,"zip":2121},"status":"trashed","title":"EPPING CHEMMART PHARMACY"}
{"id":162,"category":["rain"],"contentChildrenCount":{"review":0,"lead":0},"contact":{"phone":"02 9873 5629","website":"https://www.lowes.com.au/"},"content":{"id":20383,"slug":"lowes-carlingford"},"location":{"street":"SHOP 36-37 CARLINGFORD COURT","city":"Epping","state":"New South Wales","country":"AU","address":"SHOP 36-37 CARLINGFORD COURT CARLINGFORD  NSW 2118","latitude":-33.772182,"longitude":151.076966,"zip":2121},"status":"trashed","title":"LOWES CARLINGFORD"}
{"id":163,"category":["furniture","shade"],"contentChildrenCount":{"review":0,"lead":0},"contact":{"phone":"02 9875 1999","website":"https://www.bestspharmacy.com.au/"},"content":{"id":20384,"slug":"bests-pharmacy-cherrybrook"},"location":{"street":"CHERRYBROOK SHOPPING CENTRE","city":"Cherrybrook","state":"New South Wales","country":"AU","address":"CHERRYBROOK SHOPPING CENTRE CHERRYBROOK  NSW 2120","latitude":-33.721052,"longitude":151.044048,"zip":2126},"status":"trashed","title":"BESTS PHARMACY CHERRYBROOK"}
{"id":164,"category":["beach","furniture","shade"],"contentChildrenCount":{"review":0,"lead":0},"contact":{"phone":"02 9748 8368","website":"https://tuckerbbq.com.au/"},"content":{"id":20385,"slug":"barbeque-factory-silverwater"},"location":{"street":"138 SILVERWATER ROAD","city":"Silverwater","state":"New South Wales","country":"AU","address":"138 SILVERWATER ROAD SILVERWATER  NSW 2128","latitude":-33.833741,"longitude":151.047772,"zip":2128},"status":"trashed","title":"BARBEQUE FACTORY SILVERWATER"}
{"id":165,"category":["rain"],"contentChildrenCount":{"review":0,"lead":0},"contact":{"phone":"02 9704 2717","website":"https://www.davidjones.com/"},"content":{"id":20386,"slug":"david-jones-silverwater"},"location":{"street":"WAREHOUSE","city":"Silverwater","state":"New South Wales","country":"AU","address":"WAREHOUSE SILVERWATER  NSW 2128","latitude":-33.833225,"longitude":151.04952,"zip":2128},"status":"trashed","title":"DAVID JONES SILVERWATER"}
{"id":166,"category":["beach","furniture","shade"],"contentChildrenCount":{"review":0,"lead":0},"contact":{"phone":"02 9737 9799","website":"https://joesbbqs.com.au/"},"content":{"id":20387,"slug":"joes-bbqs-heating"},"location":{"street":"142 SILVERWATER ROAD","city":"Silverwater","state":"New South Wales","country":"AU","address":"142 SILVERWATER ROAD SILVERWATER  NSW 2128","latitude":-33.83329,"longitude":151.047727,"zip":2128},"status":"trashed","title":"JOE'S BBQ'S & HEATING"}
{"id":167,"category":["rain"],"contentChildrenCount":{"review":0,"lead":0},"contact":{"phone":"07 3848 5747","website":"https://theschoollocker.com.au/"},"content":{"id":20388,"slug":"the-school-locker"},"location":{"city":"Silverwater","state":"New South Wales","country":"AU","address":"SILVERWATER DC  QLD 1811","latitude":-33.83399,"longitude":151.0483,"zip":2128},"status":"trashed","title":"THE SCHOOL LOCKER"}
{"id":168,"category":["furniture","shade"],"contentChildrenCount":{"review":0,"lead":0},"contact":{"phone":"02 9797 9711","website":"https://soulpattinson.com.au/"},"content":{"id":20389,"slug":"centre-pharmacy-summer-hill"},"location":{"street":"44 LACKEY ST","city":"Summer Hill","state":"New South Wales","country":"AU","address":"44 LACKEY ST SUMMER HILL  NSW 2130","latitude":-33.891604,"longitude":151.138476,"zip":2130},"status":"trashed","title":"CENTRE PHARMACY SUMMER HILL"}
{"id":169,"category":["rain"],"contentChildrenCount":{"review":0,"lead":0},"contact":{"phone":"0418 767 953"},"content":{"id":20390,"slug":"speedy-shoe-repairs"},"location":{"street":"3/1 HERCULES STREET","city":"Ashfield","state":"New South Wales","country":"AU","address":"3/1 HERCULES STREET ASHFIELD  NSW 2131","latitude":-33.887975,"longitude":151.125455,"zip":2131},"status":"trashed","title":"SPEEDY SHOE REPAIRS"}
{"id":170,"category":["rain"],"contentChildrenCount":{"review":0,"lead":0},"contact":{"phone":"02 9747 4932","website":"https://www.davidjones.com/"},"content":{"id":20391,"slug":"david-jones-burwood"},"location":{"street":"WESTFIELD BURWOOD","city":"Burwood","state":"New South Wales","country":"AU","address":"WESTFIELD BURWOOD BURWOOD  NSW 2134","latitude":-33.874709,"longitude":151.105913,"zip":2134},"status":"trashed","title":"DAVID JONES BURWOOD"}
{"id":171,"category":["rain"],"contentChildrenCount":{"review":0,"lead":0},"contact":{"phone":"02 9744 0200","website":"https://www.lowes.com.au/"},"content":{"id":20392,"slug":"lowes-burwood-plaza"},"location":{"street":"SHOP 32 BURWOOD PLAZA","city":"Burwood","state":"New South Wales","country":"AU","address":"SHOP 32 BURWOOD PLAZA BURWOOD  NSW 2134","latitude":-33.877621,"longitude":151.102268,"zip":2134},"status":"trashed","title":"LOWES BURWOOD PLAZA"}
{"id":172,"category":["rain"],"contentChildrenCount":{"review":0,"lead":0},"contact":{"phone":"02 9747 1566","website":"https://www.myer.com.au/"},"content":{"id":20393,"slug":"myer-burwood"},"location":{"street":"WESTFIELD SHOPPING TOWN, BURWOOD ROAD","city":"Burwood","state":"New South Wales","country":"AU","address":"WESTFIELD SHOPPING TOWN, BURWOOD ROAD BURWOOD  NSW 2134","latitude":-33.874709,"longitude":151.105913,"zip":2134},"status":"trashed","title":"MYER BURWOOD"}
{"id":173,"category":["shade"],"contentChildrenCount":{"review":0,"lead":0},"contact":{"phone":"02 9763 5000"},"content":{"id":20394,"slug":"strathfield-homeware"},"location":{"street":"SHOP 8, STRATHFIELD PLAZA","city":"Strathfield","state":"New South Wales","country":"AU","address":"SHOP 8, STRATHFIELD PLAZA STRATHFIELD  NSW 2135","latitude":-33.872937,"longitude":151.093249,"zip":2135},"status":"trashed","title":"STRATHFIELD HOMEWARE"}
{"id":174,"category":["rain"],"contentChildrenCount":{"review":0,"lead":0},"contact":{"phone":"02 9649 7762","website":"http://www.healthsave.com.au/"},"content":{"id":20395,"slug":"healthsave-berala-pharmacy"},"location":{"street":"174 WOODBURN RD","city":"Berala","state":"New South Wales","country":"AU","address":"174 WOODBURN RD BERALA  NSW 2141","latitude":-33.871778,"longitude":151.030825,"zip":2141},"status":"trashed","title":"HEALTHSAVE BERALA PHARMACY"}
{"id":175,"category":["furniture"],"contentChildrenCount":{"review":0,"lead":0},"contact":{"phone":"02 9649 4962","website":"https://www.healthdirect.gov.au/"},"content":{"id":20396,"slug":"mannings-pharmacy"},"location":{"street":"SHOP 1, 150 WOODBURN ROAD","city":"Berala","state":"New South Wales","country":"AU","address":"SHOP 1, 150 WOODBURN ROAD BERALA  NSW 2141","latitude":-33.87112,"longitude":151.03221,"zip":2141},"status":"trashed","title":"MANNINGS PHARMACY"}
{"id":176,"category":["beach","rain"],"contentChildrenCount":{"review":0,"lead":0},"contact":{"phone":"02 9644 2788","website":"https://www.healthdirect.gov.au/"},"content":{"id":20397,"slug":"birrong-pharmacy"},"location":{"street":"89 AUBURN RD","city":"Birrong","state":"New South Wales","country":"AU","address":"89 AUBURN RD BIRRONG  NSW 2143","latitude":-33.891018,"longitude":151.02237,"zip":2143},"status":"trashed","title":"BIRRONG PHARMACY"}
{"id":177,"category":["shade"],"contentChildrenCount":{"review":0,"lead":0},"contact":{"phone":"02 8748 4200","website":"https://www.domayne.com.au/"},"content":{"id":20398,"slug":"domayne-auburn"},"location":{"street":"103-123 PARRAMATTA RD","city":"Auburn","state":"New South Wales","country":"AU","address":"103-123 PARRAMATTA RD AUBURN  NSW 2144","latitude":-33.843492,"longitude":151.04115,"zip":2144},"status":"trashed","title":"DOMAYNE AUBURN"}
{"id":178,"category":["shade"],"contentChildrenCount":{"review":0,"lead":0},"contact":{"phone":"02 9202 4888","website":"https://www.harveynorman.com.au/"},"content":{"id":20399,"slug":"harvey-norman-auburn"},"location":{"street":"250 PARRAMATTA RD","city":"Auburn","state":"New South Wales","country":"AU","address":"250 PARRAMATTA RD AUBURN  NSW 2144","latitude":-33.840522,"longitude":151.032762,"zip":2144},"status":"trashed","title":"HARVEY NORMAN AUBURN"}
{"id":179,"category":["rain"],"contentChildrenCount":{"review":0,"lead":0},"contact":{"phone":"02 9649 4657","website":"https://ramadanpharmacy.com.au/"},"content":{"id":20400,"slug":"ramadan-pharmacy"},"location":{"street":"63 RAWSON STREET","city":"Auburn","state":"New South Wales","country":"AU","address":"63 RAWSON STREET AUBURN  NSW 2144","latitude":-33.849286,"longitude":151.033996,"zip":2144},"status":"trashed","title":"RAMADAN PHARMACY"}
{"id":180,"category":["beach","rain"],"contentChildrenCount":{"review":0,"lead":0},"contact":{"phone":"02 9631 4005","website":"https://www.healthdirect.gov.au/"},"content":{"id":20401,"slug":"chemsave-day-night"},"location":{"street":"118 STATION STREET","city":"Wentworthville","state":"New South Wales","country":"AU","address":"118 STATION STREET WENTWORTHVILLE  NSW 2145","latitude":-33.810215,"longitude":150.971556,"zip":2145},"status":"trashed","title":"CHEMSAVE DAY & NIGHT"}
{"id":181,"category":["furniture"],"contentChildrenCount":{"review":0,"lead":0},"contact":{"phone":"02 9631 3019","website":"https://harpertimber.com.au/"},"content":{"id":20402,"slug":"home-hardware-pendle-hill"},"location":{"street":"1/120 GIBA ROAD","city":"Girraween","state":"New South Wales","country":"AU","address":"1/120 GIBA ROAD GIRRAWEEN  NSW 2145","latitude":-33.798416,"longitude":150.942845,"zip":2145},"status":"trashed","title":"HOME HARDWARE PENDLE HILL"}
{"id":182,"category":["rain"],"contentChildrenCount":{"review":0,"lead":0},"contact":{"phone":"02 9203 0111","website":"https://www.blackwoods.com.au/"},"content":{"id":20403,"slug":"j-blackwood-son-ltd-1"},"location":{"street":"1 BELLEVUE STREET","city":"Pemulwuy","state":"New South Wales","country":"AU","address":"1 BELLEVUE STREET GREYSTANES  NSW 2145","latitude":-33.822768,"longitude":150.920008,"zip":2145},"status":"trashed","title":"J BLACKWOOD & SON LTD"}
{"id":183,"category":["rain"],"contentChildrenCount":{"review":0,"lead":0},"contact":{"phone":"02 9688 3853","website":"https://www.lowes.com.au/"},"content":{"id":20404,"slug":"lowes-wentworthville"},"location":{"street":"SHOP 35 WENTWORTHVILLE MALL","city":"Wentworthville","state":"New South Wales","country":"AU","address":"SHOP 35 WENTWORTHVILLE MALL WENTWORTHVILLE  NSW 2145","latitude":-33.815621,"longitude":150.971267,"zip":2145},"status":"trashed","title":"LOWES WENTWORTHVILLE"}
{"id":184,"category":["rain"],"contentChildrenCount":{"review":0,"lead":0},"contact":{"phone":"02 8848 2050","website":"https://www.mcbeath.com.au/"},"content":{"id":20405,"slug":"mc-beaths-pharmacy-westmead-ho"},"location":{"street":"SH 207 WESTMEAD PUBLIC HOSPITA","city":"Westmead","state":"New South Wales","country":"AU","address":"SH 207 WESTMEAD PUBLIC HOSPITA WESTMEAD  NSW 2145","latitude":-33.802216,"longitude":150.989407,"zip":2145},"status":"trashed","title":"MC BEATHS PHARMACY WESTMEAD HO"}
{"id":185,"contentChildrenCount":{"review":0,"lead":0},"contact":{"phone":"02 8822 8400","website":"https://www.harveynorman.com.au/"},"content":{"id":20406,"slug":"harvey-norman-blacktown"},"location":{"street":"CNR BLACKTOWN & BUNGARRIBEE RD","city":"Seven Hills","state":"New South Wales","country":"AU","address":"CNR BLACKTOWN & BUNGARRIBEE RD BLACKTOWN  NSW 2148","latitude":-33.779638,"longitude":150.920416,"zip":2147},"status":"trashed","title":"HARVEY NORMAN BLACKTOWN"}
{"id":186,"category":["rain"],"contentChildrenCount":{"review":0,"lead":0},"contact":{"phone":"02 9672 3579","website":"https://www.lowes.com.au/"},"content":{"id":20407,"slug":"lowes-seven-hills"},"location":{"street":"SHOP 16 HILLS SHOPPING CENTRE","city":"Seven Hills","state":"New South Wales","country":"AU","address":"SHOP 16 HILLS SHOPPING CENTRE SEVEN HILLS  NSW 2147","latitude":-33.775748,"longitude":150.931312,"zip":2147},"status":"trashed","title":"LOWES SEVEN HILLS"}
{"id":187,"category":["shade"],"contentChildrenCount":{"review":0,"lead":0},"contact":{"phone":"02 9624 5561","website":"https://www.woodburyhouse.com.au/"},"content":{"id":20408,"slug":"woodbury-house-furniture"},"location":{"street":"8 ST JAMES PLACE","city":"Seven Hills","state":"New South Wales","country":"AU","address":"8 ST JAMES PLACE SEVEN HILLS  NSW 2147","latitude":-33.774328,"longitude":150.952462,"zip":2147},"status":"trashed","title":"WOODBURY HOUSE FURNITURE"}
{"id":188,"category":["rain"],"contentChildrenCount":{"review":0,"lead":0},"contact":{"phone":"02 9672 3025","website":"https://www.lowes.com.au/"},"content":{"id":20409,"slug":"lowes-blacktown"},"location":{"street":"SHOP 55E MARKETOWN WESTPOINT","city":"Blacktown","state":"New South Wales","country":"AU","address":"SHOP 55E MARKETOWN WESTPOINT BLACKTOWN  NSW 2148","latitude":-33.769538,"longitude":150.904597,"zip":2148},"status":"trashed","title":"LOWES BLACKTOWN"}
{"id":189,"category":["rain"],"contentChildrenCount":{"review":0,"lead":0},"contact":{"phone":"02 9621 0022","website":"https://www.myer.com.au/"},"content":{"id":20410,"slug":"myer-blacktown"},"location":{"street":"KILDARE ST","city":"Blacktown","state":"New South Wales","country":"AU","address":"KILDARE ST BLACKTOWN  NSW 2148","latitude":-33.767812,"longitude":150.889941,"zip":2148},"status":"trashed","title":"MYER BLACKTOWN"}
{"id":190,"category":["rain"],"contentChildrenCount":{"review":0,"lead":0},"contact":{"phone":"02 9841 3555","website":"https://www.davidjones.com/"},"content":{"id":20411,"slug":"david-jones-parramatta"},"location":{"street":"DOCK F WESTFIELD","city":"Parramatta","state":"New South Wales","country":"AU","address":"DOCK F WESTFIELD PARRAMATTA  NSW 2150","latitude":-33.816954,"longitude":151.001216,"zip":2150},"status":"trashed","title":"DAVID JONES PARRAMATTA"}
{"id":191,"category":["rain"],"contentChildrenCount":{"review":0,"lead":0},"contact":{"phone":"02 9687 1912","website":"https://www.lowes.com.au/"},"content":{"id":20412,"slug":"lowes-parramatta"},"location":{"street":"SHOP 5005/5006 LEVEL 5","city":"Parramatta","state":"New South Wales","country":"AU","address":"SHOP 5005/5006 LEVEL 5 PARRAMATTA  NSW 2150","latitude":-33.817368,"longitude":151.000473,"zip":2150},"status":"trashed","title":"LOWES PARRAMATTA"}
{"id":192,"category":["rain"],"contentChildrenCount":{"review":0,"lead":0},"contact":{"phone":"02 9891 2222","website":"https://www.myer.com.au/"},"content":{"id":20413,"slug":"myer-parramatta"},"location":{"street":"159-175 CHURCH ST","city":"Parramatta","state":"New South Wales","country":"AU","address":"159-175 CHURCH ST PARRAMATTA  NSW 2150","latitude":-33.81775,"longitude":151.002406,"zip":2150},"status":"trashed","title":"MYER PARRAMATTA"}
{"id":193,"category":["rain"],"contentChildrenCount":{"review":0,"lead":0},"contact":{"phone":"02 9687 4600","website":"https://www.pharmacy4less.com.au/"},"content":{"id":20414,"slug":"pharmacy-for-less-chemsave"},"location":{"street":"240 CHURCH STREET","city":"Parramatta","state":"New South Wales","country":"AU","address":"240 CHURCH STREET PARRAMATTA  NSW 2150","latitude":-33.814248,"longitude":151.003543,"zip":2150},"status":"trashed","title":"PHARMACY FOR LESS  CHEMSAVE"}
{"id":194,"category":["rain"],"contentChildrenCount":{"review":0,"lead":0},"contact":{"phone":"02 9659 8740","website":"https://www.lowes.com.au/"},"content":{"id":20415,"slug":"lowes-winston-hills"},"location":{"street":"SHOP T16 WINSTON HILLS S.C","city":"Winston Hills","state":"New South Wales","country":"AU","address":"SHOP T16 WINSTON HILLS S.C WINSTON HILLS  NSW 2153","latitude":-33.772941,"longitude":150.969007,"zip":2153},"status":"trashed","title":"LOWES WINSTON HILLS"}
{"id":195,"category":["rain"],"contentChildrenCount":{"review":0,"lead":0},"contact":{"phone":"02 9639 5100","website":"https://www.homehardware.com.au/"},"content":{"id":20416,"slug":"mullane-pharmacy"},"location":{"street":"SHOP 99 STOCKLAND MALL","city":"Baulkham Hills","state":"New South Wales","country":"AU","address":"SHOP 99 STOCKLAND MALL BAULKHAM HILLS  NSW 2153","latitude":-33.759055,"longitude":150.991555,"zip":2153},"status":"trashed","title":"MULLANE PHARMACY"}
{"id":196,"category":["shade"],"contentChildrenCount":{"review":0,"lead":0},"contact":{"phone":"02 9634 7000","website":"https://www.barbequesgalore.com.au/"},"content":{"id":20417,"slug":"barbeques-galore-castle-hill"},"location":{"street":"SHOP LG21 HILLS HOMEMAKER CTN","city":"Castle Hill","state":"New South Wales","country":"AU","address":"SHOP LG21 HILLS HOMEMAKER CTN CASTLE HILL  NSW 2154","latitude":-33.727012,"longitude":150.976263,"zip":2154},"status":"trashed","title":"BARBEQUES GALORE CASTLE HILL"}
{"id":197,"category":["rain"],"contentChildrenCount":{"review":0,"lead":0},"contact":{"phone":"02 9842 5222","website":"https://www.davidjones.com/"},"content":{"id":20418,"slug":"david-jones-castle-hill"},"location":{"street":"ERIC FELTON ST &","city":"Castle Hill","state":"New South Wales","country":"AU","address":"ERIC FELTON ST & CASTLE HILL  NSW 2154","latitude":-33.730071,"longitude":151.006717,"zip":2154},"status":"trashed","title":"DAVID JONES CASTLE HILL"}
{"id":198,"category":["shade"],"contentChildrenCount":{"review":0,"lead":0},"contact":{"phone":"02 9846 8800","website":"https://www.domayne.com.au/"},"content":{"id":20419,"slug":"domayne-castle-hill"},"location":{"street":"HILLS HOMEMAKER CENTRE","city":"Castle Hill","state":"New South Wales","country":"AU","address":"HILLS HOMEMAKER CENTRE CASTLE HILL  NSW 2154","latitude":-33.727012,"longitude":150.976263,"zip":2154},"status":"trashed","title":"DOMAYNE CASTLE HILL"}
{"id":199,"category":["shade"],"contentChildrenCount":{"review":0,"lead":0},"contact":{"phone":"02 9840 8800","website":"https://www.harveynorman.com.au/"},"content":{"id":20420,"slug":"harvey-norman-castle-hill"},"location":{"street":"CNR SHOWGROUND ROAD & VICTORIA AVENUE","city":"Castle Hill","state":"New South Wales","country":"AU","address":"CNR SHOWGROUND ROAD & VICTORIA AVENUE CASTLE HILL  NSW 2154","latitude":-33.724981,"longitude":150.976886,"zip":2154},"status":"trashed","title":"HARVEY NORMAN CASTLE HILL"}
{"id":200,"category":["shade"],"contentChildrenCount":{"review":0,"lead":0},"contact":{"phone":"02 9680 3252","website":"http://www.mediadvice.com.au/"},"content":{"id":20421,"slug":"knightsbridge-pharmacy"},"location":{"street":"SHOP 4, KNIGHTSBRIDGE SHOPPING","city":"Castle Hill","state":"New South Wales","country":"AU","address":"SHOP 4, KNIGHTSBRIDGE SHOPPING CASTLE HILL  NSW 2154","latitude":-33.713497,"longitude":150.994431,"zip":2154},"status":"trashed","title":"KNIGHTSBRIDGE PHARMACY"}
{"id":201,"category":["rain"],"contentChildrenCount":{"review":0,"lead":0},"contact":{"phone":"02 9659 8740","website":"https://www.lowes.com.au/"},"content":{"id":20422,"slug":"lowes-castle-towers"},"location":{"street":"SHOP 316 CASTLE TOWERS S/CTR","city":"Castle Hill","state":"New South Wales","country":"AU","address":"SHOP 316 CASTLE TOWERS S/CTR CASTLE HILL  NSW 2154","latitude":-33.731506,"longitude":151.005087,"zip":2154},"status":"trashed","title":"LOWES CASTLE TOWERS"}
{"id":202,"category":["rain"],"contentChildrenCount":{"review":0,"lead":0},"contact":{"phone":"02 8851 5611","website":"https://www.myer.com.au/"},"content":{"id":20423,"slug":"myer-castle-hill"},"location":{"street":"CASTLE TOWERS SHOP.CTN, OLD NORTHERN ROAD","city":"Castle Hill","state":"New South Wales","country":"AU","address":"CASTLE TOWERS SHOP.CTN, OLD NORTHERN ROAD CASTLE HILL  NSW 2154","latitude":-33.731506,"longitude":151.005087,"zip":2154},"status":"trashed","title":"MYER CASTLE HILL"}
{"id":203,"category":["furniture","shade"],"contentChildrenCount":{"review":0,"lead":0},"contact":{"phone":"02 9680 4251","website":"https://olympia.com.au/corporate/"},"content":{"id":20424,"slug":"olympia-trophies-corporate"},"location":{"street":"UNIT 51 9 Hoyle Ave","city":"Castle Hill","state":"New South Wales","country":"AU","address":"UNIT 51 9 Hoyle Ave CASTLE HILL  NSW 2154","latitude":-33.732183,"longitude":150.983968,"zip":2154},"status":"trashed","title":"OLYMPIA TROPHIES CORPORATE"}
{"id":204,"category":["beach","rain"],"contentChildrenCount":{"review":0,"lead":0},"contact":{"phone":"02 8814 7031","website":"https://www.cancercouncil.com.au/"},"content":{"id":20425,"slug":"cancer-council-rouse-hill"},"location":{"street":"SHOP GR102,ROUSE HILL TOWN CTN","city":"Rouse Hill","state":"New South Wales","country":"AU","address":"SHOP GR102,ROUSE HILL TOWN CTN ROUSE HILL  NSW 2155","latitude":-33.691525,"longitude":150.925716,"zip":2155},"status":"trashed","title":"CANCER COUNCIL ROUSE HILL"}
{"id":205,"category":["beach","rain"],"contentChildrenCount":{"review":0,"lead":0},"contact":{"phone":"02 9629 1446","website":"https://www.choicepharmacy.com.au/"},"content":{"id":20426,"slug":"choice-pharmacy-nth-kellyville"},"location":{"street":"46 WITHERS ROAD","city":"Kellyville","state":"New South Wales","country":"AU","address":"46 WITHERS ROAD KELLYVILLE  NSW 2155","latitude":-33.686023,"longitude":150.951553,"zip":2155},"status":"trashed","title":"CHOICE PHARMACY NTH KELLYVILLE"}
{"id":206,"category":["rain"],"contentChildrenCount":{"review":0,"lead":0},"contact":{"phone":"02 8883 4996","website":"https://www.lowes.com.au/"},"content":{"id":20427,"slug":"lowes-rouse-hill"},"location":{"street":"GRO 58-59, ROUSE HILL TOWN CTN","city":"Rouse Hill","state":"New South Wales","country":"AU","address":"GRO 58-59, ROUSE HILL TOWN CTN ROUSE HILL  NSW 2153","latitude":-33.691525,"longitude":150.925716,"zip":2155},"status":"trashed","title":"LOWES ROUSE HILL"}
{"id":207,"category":["rain"],"contentChildrenCount":{"review":0,"lead":0},"contact":{"phone":"02 9651 1156","website":"http://www.friendlypharmacy.com.au/"},"content":{"id":20428,"slug":"friendly-pharmacy-dural"},"location":{"street":"SHOP 12, THE VILLAGE GREEN,","city":"Dural","state":"New South Wales","country":"AU","address":"SHOP 12, THE VILLAGE GREEN, DURAL  NSW 2158","latitude":-33.694623,"longitude":151.02428,"zip":2158},"status":"trashed","title":"FRIENDLY PHARMACY DURAL"}
{"id":208,"category":["rain"],"contentChildrenCount":{"review":0,"lead":0},"contact":{"phone":"02 9654 1942"},"content":{"id":20429,"slug":"mr-jones-gents-outfitters"},"location":{"street":"44 COBAH ROAD","city":"Fiddletown","state":"New South Wales","country":"AU","address":"44 COBAH ROAD ARCADIA  NSW 2159","latitude":-33.608151,"longitude":151.054158,"zip":2159},"status":"trashed","title":"MR JONES GENTS OUTFITTERS"}
{"id":209,"category":["rain"],"contentChildrenCount":{"review":0,"lead":0},"contact":{"phone":"02 9637 5718","website":"https://www.lowes.com.au/"},"content":{"id":20430,"slug":"lowes-merrylands"},"location":{"street":"SHOP 1075 STOCKLAND MALL","city":"Merrylands","state":"New South Wales","country":"AU","address":"SHOP 1075 STOCKLAND MALL MERRYLANDS  NSW 2160","latitude":-33.833798,"longitude":150.987287,"zip":2160},"status":"trashed","title":"LOWES MERRYLANDS"}
{"id":210,"category":["rain"],"contentChildrenCount":{"review":0,"lead":0},"contact":{"phone":"02 9203 0111","website":"https://www.blackwoods.com.au/"},"content":{"id":20431,"slug":"j-blackwood-son-ltd-2"},